# Copyright 2021 Google LLC
#
# Licensed under the Apache License, Version 2.0 (the "License");
# you may not use this file except in compliance with the License.
# You may obtain a copy of the License at
#
#      http://www.apache.org/licenses/LICENSE-2.0
#
# Unless required by applicable law or agreed to in writing, software
# distributed under the License is distributed on an "AS IS" BASIS,
# WITHOUT WARRANTIES OR CONDITIONS OF ANY KIND, either express or implied.
# See the License for the specific language governing permissions and
# limitations under the License.

# [START maps_http_places_textsearch_pagetoken_response]
{
  "html_attributions": [],
  "next_page_token": "Aap_uEB90kWPse80yLlF6oRJci2N2Kvp56rqkboztVgXa7_zi9q_IJ1vdzDtm5cuWJeEng80eckTKtE5SvFbz1SRsyUXV50HqLmen_kfSIRqG_-8fa1nwLVjLqpptktsh8MSBRPlVYRhAPl_Os-b4zHO05u2nKUV15uuR2p4BK4ZgZ2h_Yi6Gg_bYjVeYrxv6sWLvPv0sF-Jz2toBJ45tpvyAZkQanihMDx9VwxevoIylxZm-do0-8XaZMxuqJVFkm7TLNh1Klfr2ycSqh5IPSE3nrY5fezFSmH8BllbkPV-_qGd7nufB2gQZZdoeLtavqTWImwguqFKXXLrDsgZMcDgG0t7rR2-NaEJpdCUv6sUztTT4SUTkTo2ZHDQHVX8ezzZAAJ9Sm-nwEbJgYiYiijH_ejXeck_khJTcoZzP_Kpclkf_9kKgqbGUVeOdYerNpP8VvksQ5xZsDnWzrC1vw0MRhR9VdqTTZb_mTBNOcVU5MJ5P4iu5vXyGDOnn62XR3bY1Ue86ogEfa5FCBwldJ39Fw1CEZkf2WK9nEZM_ULO2ID0XfkWD1D--NrMFnnH3GQXUH2N7f2rJRssJu-JYnzPhLte83K1hhgaWLc",
  "results":
    [
      {
        "business_status": "OPERATIONAL",
        "geometry":
          {
            "location": { "lat": -33.8670097, "lng": 151.1959641 },
            "viewport":
              {
                "northeast":
                  { "lat": -33.8652676697085, "lng": 151.1970051802915 },
                "southwest":
                  { "lat": -33.8679656302915, "lng": 151.1943072197085 },
              },
          },
        "icon": "https://maps.gstatic.com/mapfiles/place_api/icons/v1/png_71/cafe-71.png",
        "icon_background_color": "#FF9E67",
        "icon_mask_base_uri": "https://maps.gstatic.com/mapfiles/place_api/icons/v2/cafe_pinlet",
        "name": "Baggios",
        "photos":
          [
            {
              "height": 1114,
              "html_attributions":
                [
                  '<a href="https://maps.google.com/maps/contrib/118404824153733122989">Kate Conroy</a>',
                ],
              "photo_reference": "Aap_uEA44f5jjOSpbt7Ym1b_gN4cB3IbamMOrFAVMeLL5xBIoDr2oF0B-BKvmt2YafjeXRhlDbyZvRlU7tFPEvMqewhJppuSffAKwnJOoPVxkKBFY-aM34ClbjB8IxaYNBVl0lAUDdMjP60YMfdf0y0BubZYfk1Yok7jlj2h4ixVUTiyJ6Oz",
              "width": 2388,
            },
          ],
        "place_id": "ChIJTVawZ9mvEmsRxZwZN_GD6S0",
        "plus_code":
          {
            "compound_code": "45MW+59 Pyrmont NSW, Australia",
            "global_code": "4RRH45MW+59",
          },
        "reference": "ChIJTVawZ9mvEmsRxZwZN_GD6S0",
        "scope": "GOOGLE",
        "types": ["cafe", "food", "point_of_interest", "establishment"],
        "vicinity": "Pyrmont",
      },
      {
        "business_status": "OPERATIONAL",
        "geometry":
          {
            "location": { "lat": -33.86710999999999, "lng": 151.1959991 },
            "viewport":
              {
                "northeast":
                  { "lat": -33.86581966970849, "lng": 151.1971902802915 },
                "southwest":
                  { "lat": -33.86851763029148, "lng": 151.1944923197085 },
              },
          },
        "icon": "https://maps.gstatic.com/mapfiles/place_api/icons/v1/png_71/generic_business-71.png",
        "icon_background_color": "#7B9EB0",
        "icon_mask_base_uri": "https://maps.gstatic.com/mapfiles/place_api/icons/v1/png_71/generic_pinlet",
        "name": "Life From A Suitcase",
        "photos":
          [
            {
              "height": 2160,
              "html_attributions":
                [
                  '<a href="https://maps.google.com/maps/contrib/105505602978119898120">Abdullah Al Mamun</a>',
                ],
              "photo_reference": "Aap_uEAZCcBelIIh4lxa8WEhP-lXBDjA1vsZMCy_rlkzYMXGM-9q-dPFSOrlpeH2_Bah6cu0iPgxY1nNP6vAegdhRoox6ZK-y7qizmAYSqc5BDNARnhQhVxmD7EU3LCdisSBK1rA6scRMp72wjm0Nci7ol34prTQAG-K-RN8PgTgwtIT2CN2",
              "width": 3840,
            },
          ],
        "place_id": "ChIJoTCOpkWvEmsRCzAIBl5AclA",
        "plus_code":
          {
            "compound_code": "45MW+59 Pyrmont NSW, Australia",
            "global_code": "4RRH45MW+59",
          },
        "reference": "ChIJoTCOpkWvEmsRCzAIBl5AclA",
        "scope": "GOOGLE",
        "types": ["point_of_interest", "establishment"],
        "vicinity": "48A Pirrama Road, Pyrmont",
      },
      {
        "business_status": "OPERATIONAL",
        "geometry":
          {
            "location": { "lat": -33.867207, "lng": 151.195496 },
            "viewport":
              {
                "northeast":
                  { "lat": -33.8658306697085, "lng": 151.1969185302915 },
                "southwest":
                  { "lat": -33.8685286302915, "lng": 151.1942205697085 },
              },
          },
        "icon": "https://maps.gstatic.com/mapfiles/place_api/icons/v1/png_71/generic_business-71.png",
        "icon_background_color": "#7B9EB0",
        "icon_mask_base_uri": "https://maps.gstatic.com/mapfiles/place_api/icons/v1/png_71/generic_pinlet",
        "name": "The Star, Pirrama Rd, Set Down",
        "place_id": "ChIJoRq0rDeuEmsR2W2P5nSeiB4",
        "plus_code":
          {
            "compound_code": "45MW+45 Pyrmont NSW, Australia",
            "global_code": "4RRH45MW+45",
          },
        "reference": "ChIJoRq0rDeuEmsR2W2P5nSeiB4",
        "scope": "GOOGLE",
        "types": ["transit_station", "point_of_interest", "establishment"],
        "vicinity": "Australia",
      },
      {
        "business_status": "OPERATIONAL",
        "geometry":
          {
            "location": { "lat": -33.8667652, "lng": 151.1956967 },
            "viewport":
              {
                "northeast":
                  { "lat": -33.8651454197085, "lng": 151.1968714802915 },
                "southwest":
                  { "lat": -33.8678433802915, "lng": 151.1941735197085 },
              },
          },
        "icon": "https://maps.gstatic.com/mapfiles/place_api/icons/v1/png_71/generic_business-71.png",
        "icon_background_color": "#7B9EB0",
        "icon_mask_base_uri": "https://maps.gstatic.com/mapfiles/place_api/icons/v1/png_71/generic_pinlet",
        "name": "Expansion",
        "place_id": "ChIJYx0qtTeuEmsRqgT0xozr1DA",
        "plus_code":
          {
            "compound_code": "45MW+77 Pyrmont NSW, Australia",
            "global_code": "4RRH45MW+77",
          },
        "reference": "ChIJYx0qtTeuEmsRqgT0xozr1DA",
        "scope": "GOOGLE",
        "types": ["point_of_interest", "establishment"],
        "vicinity": "Australia",
      },
      {
        "business_status": "OPERATIONAL",
        "geometry":
          {
            "location": { "lat": -33.8669106, "lng": 151.1953754 },
            "viewport":
              {
                "northeast":
                  { "lat": -33.8655466697085, "lng": 151.1967794302915 },
                "southwest":
                  { "lat": -33.8682446302915, "lng": 151.1940814697085 },
              },
          },
        "icon": "https://maps.gstatic.com/mapfiles/place_api/icons/v1/png_71/generic_business-71.png",
        "icon_background_color": "#7B9EB0",
        "icon_mask_base_uri": "https://maps.gstatic.com/mapfiles/place_api/icons/v1/png_71/generic_pinlet",
        "name": "The Star, Pirrama Rd",
        "photos":
          [
            {
              "height": 2340,
              "html_attributions":
                [
                  '<a href="https://maps.google.com/maps/contrib/101362612882148803241">Sandra Holwek</a>',
                ],
              "photo_reference": "Aap_uEAdRVXCuoYMcKKpfNu1RI5I8h2QjnLMZBepphfph2r7Lg5tl8HBlCutpfKVjZ6ba9p3O0aShkGFRFepO8Dayg2-kMU-wYrqCkiXl8hMwXpLrhNNpAGUXBSuQZd1m7hJkzobgjCDyNxDIu_mI_-5Xnpuka7Mg0Jprl-ibl2IHbuHoWpq",
              "width": 4160,
            },
          ],
        "place_id": "ChIJC0JLTDauEmsR3GOrBl3xbbc",
        "plus_code":
          {
            "compound_code": "45MW+65 Pyrmont NSW, Australia",
            "global_code": "4RRH45MW+65",
          },
        "rating": 5,
        "reference": "ChIJC0JLTDauEmsR3GOrBl3xbbc",
        "scope": "GOOGLE",
        "types": ["transit_station", "point_of_interest", "establishment"],
        "user_ratings_total": 1,
        "vicinity": "Australia",
      },
      {
        "business_status": "OPERATIONAL",
        "geometry":
          {
            "location": { "lat": -33.8673595, "lng": 151.1955698 },
            "viewport":
              {
                "northeast":
                  { "lat": -33.8659744697085, "lng": 151.1970461802915 },
                "southwest":
                  { "lat": -33.8686724302915, "lng": 151.1943482197085 },
              },
          },
        "icon": "https://maps.gstatic.com/mapfiles/place_api/icons/v1/png_71/bar-71.png",
        "icon_background_color": "#FF9E67",
        "icon_mask_base_uri": "https://maps.gstatic.com/mapfiles/place_api/icons/v2/bar_pinlet",
        "name": "Marquee Sydney, The Star",
        "opening_hours": { "open_now": false },
        "photos":
          [
            {
              "height": 2268,
              "html_attributions":
                [
                  '<a href="https://maps.google.com/maps/contrib/100936716492343709003">Goldie Goldie</a>',
                ],
              "photo_reference": "Aap_uEAqZpUnhrrFtOPaBL-2Edjyvxj1acqGsRZMJr4gcUkh3p0A59w7qIPQs0EZescNjYPdMeewjOsqXYwCBc3Vr9_YC0pQ5405A6vV7-Ti2x7NMB4B0sIKHFbFuAqEapBO0K4rqQJxGg_3jujm_T_DJoUZD08MHUntAoBtAxIZkRZfMToB",
              "width": 4032,
            },
          ],
        "place_id": "ChIJYdJUVDauEmsRp-7oNoEMhuQ",
        "plus_code":
          {
            "compound_code": "45MW+36 Pyrmont NSW, Australia",
            "global_code": "4RRH45MW+36",
          },
        "price_level": 3,
        "rating": 3.3,
        "reference": "ChIJYdJUVDauEmsRp-7oNoEMhuQ",
        "scope": "GOOGLE",
        "types": ["night_club", "bar", "point_of_interest", "establishment"],
        "user_ratings_total": 319,
        "vicinity": "Pirrama Road, Pyrmont",
      },
      {
        "business_status": "OPERATIONAL",
        "geometry":
          {
            "location": { "lat": -33.86697330000001, "lng": 151.1963034 },
            "viewport":
              {
                "northeast":
                  { "lat": -33.86562431970851, "lng": 151.1976523802915 },
                "southwest":
                  { "lat": -33.86832228029151, "lng": 151.1949544197085 },
              },
          },
        "icon": "https://maps.gstatic.com/mapfiles/place_api/icons/v1/png_71/generic_business-71.png",
        "icon_background_color": "#7B9EB0",
        "icon_mask_base_uri": "https://maps.gstatic.com/mapfiles/place_api/icons/v1/png_71/generic_pinlet",
        "name": "Casino Wharf",
        "photos":
          [
            {
              "height": 3096,
              "html_attributions":
                [
                  '<a href="https://maps.google.com/maps/contrib/108901116777704647158">Shakar Abdullah</a>',
                ],
              "photo_reference": "Aap_uEAJGEpTYYP55Xd7qqhiczsbeA6AY36ebL8u09p7DL00qadLMI5W5k84QOWctp7P1rgPv-STS3nUV3l-wKc346yw00D6QN0aaQCoT3_fhqrqhPhdCHE9jry8xlRMhREIOoVZMBO9ob8oLIbOQQ5qRZGp8hyLcuD_DcoJ_K-dOYhvTwCq",
              "width": 5504,
            },
          ],
        "place_id": "ChIJ7xwTtzeuEmsR7-WvCn94qQ4",
        "plus_code":
          {
            "compound_code": "45MW+6G Pyrmont NSW, Australia",
            "global_code": "4RRH45MW+6G",
          },
        "rating": 4.2,
        "reference": "ChIJ7xwTtzeuEmsR7-WvCn94qQ4",
        "scope": "GOOGLE",
        "types": ["transit_station", "point_of_interest", "establishment"],
        "user_ratings_total": 17,
        "vicinity": "Australia",
      },
      {
        "business_status": "OPERATIONAL",
        "geometry":
          {
            "location": { "lat": -33.8666593, "lng": 151.1960631 },
            "viewport":
              {
                "northeast":
                  { "lat": -33.8651255697085, "lng": 151.1973047802915 },
                "southwest":
                  { "lat": -33.8678235302915, "lng": 151.1946068197085 },
              },
          },
        "icon": "https://maps.gstatic.com/mapfiles/place_api/icons/v1/png_71/generic_business-71.png",
        "icon_background_color": "#7B9EB0",
        "icon_mask_base_uri": "https://maps.gstatic.com/mapfiles/place_api/icons/v1/png_71/generic_pinlet",
        "name": "google Cloud",
        "place_id": "ChIJNa7wyTeuEmsRF4P1lQOoDh4",
        "plus_code":
          {
            "compound_code": "45MW+8C Pyrmont NSW, Australia",
            "global_code": "4RRH45MW+8C",
          },
        "reference": "ChIJNa7wyTeuEmsRF4P1lQOoDh4",
        "scope": "GOOGLE",
        "types": ["point_of_interest", "establishment"],
        "vicinity": "Australia",
      },
      {
        "business_status": "OPERATIONAL",
        "geometry":
          {
            "location": { "lat": -33.8665443, "lng": 151.1957644 },
            "viewport":
              {
                "northeast":
                  { "lat": -33.8650471697085, "lng": 151.1971682802915 },
                "southwest":
                  { "lat": -33.8677451302915, "lng": 151.1944703197085 },
              },
          },
        "icon": "https://maps.gstatic.com/mapfiles/place_api/icons/v1/png_71/cafe-71.png",
        "icon_background_color": "#FF9E67",
        "icon_mask_base_uri": "https://maps.gstatic.com/mapfiles/place_api/icons/v2/cafe_pinlet",
        "name": "The Press Coffee",
        "place_id": "ChIJXysTVTauEmsRcB4ykrx7bMQ",
        "plus_code":
          {
            "compound_code": "45MW+98 Pyrmont NSW, Australia",
            "global_code": "4RRH45MW+98",
          },
        "reference": "ChIJXysTVTauEmsRcB4ykrx7bMQ",
        "scope": "GOOGLE",
        "types": ["cafe", "food", "point_of_interest", "establishment"],
        "vicinity": "Australia",
      },
      {
        "business_status": "CLOSED_TEMPORARILY",
        "geometry":
          {
            "location": { "lat": -33.8675674, "lng": 151.1956091 },
            "viewport":
              {
                "northeast":
                  { "lat": -33.8661628697085, "lng": 151.1970671802915 },
                "southwest":
                  { "lat": -33.8688608302915, "lng": 151.1943692197085 },
              },
          },
        "icon": "https://maps.gstatic.com/mapfiles/place_api/icons/v1/png_71/bar-71.png",
        "icon_background_color": "#FF9E67",
        "icon_mask_base_uri": "https://maps.gstatic.com/mapfiles/place_api/icons/v2/bar_pinlet",
        "name": "Cherry at The Star",
        "permanently_closed": true,
        "photos":
          [
            {
              "height": 992,
              "html_attributions":
                [
                  '<a href="https://maps.google.com/maps/contrib/113210398723584203092">Cherry at The Star</a>',
                ],
              "photo_reference": "Aap_uEDryrRkX0UiX4Y8D07eQIHtk9k0RKQNRcD10tqp2fQA7bPtx8WIWzQkn7OqLLBCt-ll7dB8PLhiFUO4hFc7FbCr3cTjLAvdQ2bkqOkVUj_9NSgdPfv1FouREqoFOVVfBf1LjdeuEP5WqYfNmmn5eA_4gW_AgbpEv1TNh5RWKcUy2ERg",
              "width": 1650,
            },
          ],
        "place_id": "ChIJ1-v38TauEmsR41TkSleEZ-U",
        "plus_code":
          {
            "compound_code": "45JW+X6 Pyrmont NSW, Australia",
            "global_code": "4RRH45JW+X6",
          },
        "rating": 3.8,
        "reference": "ChIJ1-v38TauEmsR41TkSleEZ-U",
        "scope": "GOOGLE",
        "types": ["night_club", "bar", "point_of_interest", "establishment"],
        "user_ratings_total": 49,
        "vicinity": "THE STAR, 80 Pyrmont Street, Pyrmont",
      },
      {
        "business_status": "OPERATIONAL",
        "geometry":
          {
            "location": { "lat": -33.86737879999999, "lng": 151.1952268 },
            "viewport":
              {
                "northeast":
                  { "lat": -33.8661077197085, "lng": 151.1968885802915 },
                "southwest":
                  { "lat": -33.8688056802915, "lng": 151.1941906197085 },
              },
          },
        "icon": "https://maps.gstatic.com/mapfiles/place_api/icons/v1/png_71/generic_business-71.png",
        "icon_background_color": "#7B9EB0",
        "icon_mask_base_uri": "https://maps.gstatic.com/mapfiles/place_api/icons/v1/png_71/generic_pinlet",
        "name": "The Star",
        "photos":
          [
            {
              "height": 781,
              "html_attributions":
                [
                  '<a href="https://maps.google.com/maps/contrib/116220967134626559383">Privacy Security</a>',
                ],
              "photo_reference": "Aap_uEDxnqc-jz-vyVLfc8qYzePWAv0frKKT_VPZQ2ey3EhtXZdh3yoGJLhQdDK-sK7rcaqLaSVf2j1zKgwYsTMvzLo-_e2W_fjxsGg7ZJ8ALk6wBrCjN9Z46Dikzw-vIKyLsTFnEoe2_j76Z1Jaz0IeHLisBVUZiCvqFz5e5QTAvW_ue8dT",
              "width": 1080,
            },
          ],
        "place_id": "ChIJw1SqUTauEmsRnlzd7kKbyWM",
        "plus_code":
          {
            "compound_code": "45MW+23 Pyrmont NSW, Australia",
            "global_code": "4RRH45MW+23",
          },
        "rating": 4.2,
        "reference": "ChIJw1SqUTauEmsRnlzd7kKbyWM",
        "scope": "GOOGLE",
        "types":
          [
            "light_rail_station",
            "transit_station",
            "point_of_interest",
            "establishment",
          ],
        "user_ratings_total": 60,
        "vicinity": "Australia",
      },
      {
        "business_status": "OPERATIONAL",
        "geometry":
          {
            "location": { "lat": -33.866489, "lng": 151.1958561 },
            "viewport":
              {
                "northeast":
                  { "lat": -33.8650278197085, "lng": 151.1972428802915 },
                "southwest":
                  { "lat": -33.8677257802915, "lng": 151.1945449197085 },
              },
          },
        "icon": "https://maps.gstatic.com/mapfiles/place_api/icons/v1/png_71/school-71.png",
        "icon_background_color": "#7B9EB0",
        "icon_mask_base_uri": "https://maps.gstatic.com/mapfiles/place_api/icons/v2/school_pinlet",
        "name": "Igor Spiroski executive chef",
        "opening_hours": { "open_now": true },
        "place_id": "ChIJP2xKNByvEmsR5TwlU99XBws",
        "plus_code":
          {
            "compound_code": "45MW+C8 Pyrmont NSW, Australia",
            "global_code": "4RRH45MW+C8",
          },
        "reference": "ChIJP2xKNByvEmsR5TwlU99XBws",
        "scope": "GOOGLE",
        "types": ["school", "point_of_interest", "establishment"],
        "vicinity": "48 Pirrama Road, Pyrmont",
      },
      {
        "business_status": "OPERATIONAL",
        "geometry":
          {
            "location": { "lat": -33.866489, "lng": 151.1958561 },
            "viewport":
              {
                "northeast":
                  { "lat": -33.8650278197085, "lng": 151.1972428802915 },
                "southwest":
                  { "lat": -33.8677257802915, "lng": 151.1945449197085 },
              },
          },
        "icon": "https://maps.gstatic.com/mapfiles/place_api/icons/v1/png_71/generic_business-71.png",
        "icon_background_color": "#7B9EB0",
        "icon_mask_base_uri": "https://maps.gstatic.com/mapfiles/place_api/icons/v1/png_71/generic_pinlet",
        "name": "Kingsbourne International Realty",
        "place_id": "ChIJ____yjeuEmsRQI547lN3AAE",
        "reference": "ChIJ____yjeuEmsRQI547lN3AAE",
        "scope": "GOOGLE",
        "types": ["real_estate_agency", "point_of_interest", "establishment"],
        "vicinity": "48 Pirrama Road, Sydney",
      },
      {
        "business_status": "OPERATIONAL",
        "geometry":
          {
            "location": { "lat": -33.866489, "lng": 151.1958561 },
            "viewport":
              {
                "northeast":
                  { "lat": -33.8650278197085, "lng": 151.1972428802915 },
                "southwest":
                  { "lat": -33.8677257802915, "lng": 151.1945449197085 },
              },
          },
        "icon": "https://maps.gstatic.com/mapfiles/place_api/icons/v1/png_71/generic_business-71.png",
        "icon_background_color": "#7B9EB0",
        "icon_mask_base_uri": "https://maps.gstatic.com/mapfiles/place_api/icons/v1/png_71/generic_pinlet",
        "name": "McEwan Net",
        "place_id": "ChIJ____yjeuEmsReGqH4RHQdlA",
        "reference": "ChIJ____yjeuEmsReGqH4RHQdlA",
        "scope": "GOOGLE",
        "types": ["point_of_interest", "establishment"],
        "vicinity": "48 Pirrama Road, Pyrmont",
      },
      {
        "business_status": "OPERATIONAL",
        "geometry":
          {
            "location": { "lat": -33.866489, "lng": 151.1958561 },
            "viewport":
              {
                "northeast":
                  { "lat": -33.8655112697085, "lng": 151.1971156302915 },
                "southwest":
                  { "lat": -33.86820923029149, "lng": 151.1944176697085 },
              },
          },
        "icon": "https://maps.gstatic.com/mapfiles/place_api/icons/v1/png_71/generic_business-71.png",
        "icon_background_color": "#7B9EB0",
        "icon_mask_base_uri": "https://maps.gstatic.com/mapfiles/place_api/icons/v1/png_71/generic_pinlet",
        "name": "Google Workplace 6",
        "opening_hours": { "open_now": false },
        "photos":
          [
            {
              "height": 3024,
              "html_attributions":
                [
                  '<a href="https://maps.google.com/maps/contrib/105067373811767106297">Shaun Craig</a>',
                ],
              "photo_reference": "Aap_uEDZH9bWUTLhSvZPnxAz8y8p9GBK1o-sFPaAaL-YfbtfjmPfmeefFkbckIVuja3jdAw8JeFNN_rF4Vu2AkS2e6OF0sM4W7R_h5Jk5eT6CXZMLGVkb3wbYrr1juR5g7xHvC86VZm0-OaEtNcb9vMWVUoqWmHBQIEJogjN59OvtyaDmLAe",
              "width": 4032,
            },
          ],
        "place_id": "ChIJN1t_tDeuEmsRUsoyG83frY4",
        "plus_code":
          {
            "compound_code": "45MW+C8 Pyrmont NSW, Australia",
            "global_code": "4RRH45MW+C8",
          },
        "rating": 4.1,
        "reference": "ChIJN1t_tDeuEmsRUsoyG83frY4",
        "scope": "GOOGLE",
        "types": ["point_of_interest", "establishment"],
        "user_ratings_total": 932,
        "vicinity": "48 Pirrama Road, Pyrmont",
      },
      {
        "business_status": "OPERATIONAL",
        "geometry":
          {
            "location": { "lat": -33.8676204, "lng": 151.1955323 },
            "viewport":
              {
                "northeast":
                  { "lat": -33.8662064197085, "lng": 151.1970403302915 },
                "southwest":
                  { "lat": -33.8689043802915, "lng": 151.1943423697085 },
              },
          },
        "icon": "https://maps.gstatic.com/mapfiles/place_api/icons/v1/png_71/parking-71.png",
        "icon_background_color": "#7B9EB0",
        "icon_mask_base_uri": "https://maps.gstatic.com/mapfiles/place_api/icons/v2/parking_pinlet",
        "name": "The Star Parking Station",
        "place_id": "ChIJdbRKZHqvEmsRP0KvU-mOKFM",
        "plus_code":
          {
            "compound_code": "45JW+X6 Pyrmont NSW, Australia",
            "global_code": "4RRH45JW+X6",
          },
        "rating": 3,
        "reference": "ChIJdbRKZHqvEmsRP0KvU-mOKFM",
        "scope": "GOOGLE",
        "types": ["parking", "point_of_interest", "establishment"],
        "user_ratings_total": 1,
        "vicinity": "Pyrmont",
      },
      {
        "business_status": "OPERATIONAL",
        "geometry":
          {
            "location": { "lat": -33.8677499, "lng": 151.1956285 },
            "viewport":
              {
                "northeast":
                  { "lat": -33.86633911970851, "lng": 151.1971286802915 },
                "southwest":
                  { "lat": -33.8690370802915, "lng": 151.1944307197085 },
              },
          },
        "icon": "https://maps.gstatic.com/mapfiles/place_api/icons/v1/png_71/restaurant-71.png",
        "icon_background_color": "#FF9E67",
        "icon_mask_base_uri": "https://maps.gstatic.com/mapfiles/place_api/icons/v2/restaurant_pinlet",
        "name": "Lotus Pond",
        "opening_hours": { "open_now": true },
        "place_id": "ChIJS_-h7TauEmsRdmDJ2CvXToY",
        "plus_code":
          {
            "compound_code": "45JW+W7 Pyrmont NSW, Australia",
            "global_code": "4RRH45JW+W7",
          },
        "rating": 4,
        "reference": "ChIJS_-h7TauEmsRdmDJ2CvXToY",
        "scope": "GOOGLE",
        "types": ["restaurant", "food", "point_of_interest", "establishment"],
        "user_ratings_total": 3,
        "vicinity": "80 Pyrmont Street, Pyrmont",
      },
      {
        "business_status": "OPERATIONAL",
        "geometry":
          {
            "location": { "lat": -33.8663304, "lng": 151.1958556 },
            "viewport":
              {
                "northeast":
                  { "lat": -33.8649403197085, "lng": 151.1972106302915 },
                "southwest":
                  { "lat": -33.8676382802915, "lng": 151.1945126697085 },
              },
          },
        "icon": "https://maps.gstatic.com/mapfiles/place_api/icons/v1/png_71/generic_business-71.png",
        "icon_background_color": "#7B9EB0",
        "icon_mask_base_uri": "https://maps.gstatic.com/mapfiles/place_api/icons/v1/png_71/generic_pinlet",
        "name": "Signorelli Gastronomia",
        "photos":
          [
            {
              "height": 390,
              "html_attributions":
                [
                  '<a href="https://maps.google.com/maps/contrib/112179085393170343226">Signorelli Gastronomia</a>',
                ],
              "photo_reference": "Aap_uECG0DRIOnNQekdXEeiPknq58Jg6vi4hIOMWGyJgdDjyeBf6fQwnCO87K820df8xlhnhjBW1MNJKjEpi_W7x-ZLUaWqYNiefKljONY8ATcH2L9Qgm2OsBO60mZIawWqLmalKK9jTJaQU9K29anlcbWK5HDTIirmFKt5G-4--xugffUCZ",
              "width": 960,
            },
          ],
        "place_id": "ChIJFcJDMzauEmsRy81NJCujoY8",
        "plus_code":
          {
            "compound_code": "45MW+F8 Pyrmont NSW, Australia",
            "global_code": "4RRH45MW+F8",
          },
        "price_level": 1,
        "rating": 4.1,
        "reference": "ChIJFcJDMzauEmsRy81NJCujoY8",
        "scope": "GOOGLE",
        "types": ["food", "point_of_interest", "establishment"],
        "user_ratings_total": 29,
        "vicinity": "Signorelli Gastronomia, Trouton Place, Pyrmont",
      },
      {
        "business_status": "OPERATIONAL",
        "geometry":
          {
            "location": { "lat": -33.8662849, "lng": 151.1955744 },
            "viewport":
              {
                "northeast":
                  { "lat": -33.8648757197085, "lng": 151.1968986802915 },
                "southwest":
                  { "lat": -33.8675736802915, "lng": 151.1942007197085 },
              },
          },
        "icon": "https://maps.gstatic.com/mapfiles/place_api/icons/v1/png_71/generic_business-71.png",
        "icon_background_color": "#7B9EB0",
        "icon_mask_base_uri": "https://maps.gstatic.com/mapfiles/place_api/icons/v1/png_71/generic_pinlet",
        "name": "Channel Sales",
        "place_id": "ChIJq_qYNDauEmsRhguNtCezF-Y",
        "plus_code":
          {
            "compound_code": "45MW+F6 Pyrmont NSW, Australia",
            "global_code": "4RRH45MW+F6",
          },
        "reference": "ChIJq_qYNDauEmsRhguNtCezF-Y",
        "scope": "GOOGLE",
        "types": ["point_of_interest", "establishment"],
        "vicinity": "Australia",
      },
      {
        "business_status": "OPERATIONAL",
        "geometry":
          {
            "location": { "lat": -33.8678074, "lng": 151.1953681 },
            "viewport":
              {
                "northeast":
                  { "lat": -33.8663481697085, "lng": 151.1969868302915 },
                "southwest":
                  { "lat": -33.8690461302915, "lng": 151.1942888697085 },
              },
          },
        "icon": "https://maps.gstatic.com/mapfiles/place_api/icons/v1/png_71/restaurant-71.png",
        "icon_background_color": "#FF9E67",
        "icon_mask_base_uri": "https://maps.gstatic.com/mapfiles/place_api/icons/v2/restaurant_pinlet",
        "name": "Pizzeria",
        "opening_hours": { "open_now": false },
        "photos":
          [
            {
              "height": 1960,
              "html_attributions":
                [
                  '<a href="https://maps.google.com/maps/contrib/106029929261427351012">David</a>',
                ],
              "photo_reference": "Aap_uECdpVtreZIJ53WgIfowDu_JmlKZAN9Ps2Te9k5MfE-nIJ7BDJNyWD2gLCOSDbvw8uS39RMRkTxTPRqKRigCqXNg6Ckmmz2rV2CT4IjF39423Fa_U5dUGz5vSqiktMdd7vwucpWtuxRyunyxyYTvnVi-fsTrvdynlS9Bgx-LeUZ9i4S5",
              "width": 4032,
            },
          ],
        "place_id": "ChIJHeyLbOavEmsRajbggVkfoEo",
        "plus_code":
          {
            "compound_code": "45JW+V4 Pyrmont NSW, Australia",
            "global_code": "4RRH45JW+V4",
          },
        "rating": 5,
        "reference": "ChIJHeyLbOavEmsRajbggVkfoEo",
        "scope": "GOOGLE",
        "types": ["restaurant", "food", "point_of_interest", "establishment"],
        "user_ratings_total": 2,
        "vicinity": "The Star Casino, Shop 17B/80 Pyrmont Street, Pyrmont",
      },
    ],
  "status": "OK",
}
# [END maps_http_places_textsearch_pagetoken_response]
