<?xml version="1.0" encoding="UTF-8"?>
<!-- [START maps_http_geocode_reverse_response] -->
<GeocodeResponse>
 <status>OK</status>
 <result>
  <type>street_address</type>
  <formatted_address>277 Bedford Ave, Brooklyn, NY 11211, USA</formatted_address>
  <address_component>
   <long_name>277</long_name>
   <short_name>277</short_name>
   <type>street_number</type>
  </address_component>
  <address_component>
   <long_name>Bedford Avenue</long_name>
   <short_name>Bedford Ave</short_name>
   <type>route</type>
  </address_component>
  <address_component>
   <long_name>Williamsburg</long_name>
   <short_name>Williamsburg</short_name>
   <type>neighborhood</type>
   <type>political</type>
  </address_component>
  <address_component>
   <long_name>Brooklyn</long_name>
   <short_name>Brooklyn</short_name>
   <type>political</type>
   <type>sublocality</type>
   <type>sublocality_level_1</type>
  </address_component>
  <address_component>
   <long_name>Kings County</long_name>
   <short_name>Kings County</short_name>
   <type>administrative_area_level_2</type>
   <type>political</type>
  </address_component>
  <address_component>
   <long_name>New York</long_name>
   <short_name>NY</short_name>
   <type>administrative_area_level_1</type>
   <type>political</type>
  </address_component>
  <address_component>
   <long_name>United States</long_name>
   <short_name>US</short_name>
   <type>country</type>
   <type>political</type>
  </address_component>
  <address_component>
   <long_name>11211</long_name>
   <short_name>11211</short_name>
   <type>postal_code</type>
  </address_component>
  <geometry>
   <location>
    <lat>40.7142205</lat>
    <lng>-73.9612903</lng>
   </location>
   <location_type>ROOFTOP</location_type>
   <viewport>
    <southwest>
     <lat>40.7128715</lat>
     <lng>-73.9626393</lng>
    </southwest>
    <northeast>
     <lat>40.7155695</lat>
     <lng>-73.9599413</lng>
    </northeast>
   </viewport>
  </geometry>
  <place_id>ChIJd8BlQ2BZwokRAFUEcm_qrcA</place_id>
  <plus_code>
   <global_code>87G8P27Q+MF</global_code>
   <compound_code>P27Q+MF Brooklyn, NY, USA</compound_code>
  </plus_code>
 </result>
 <result>
  <type>premise</type>
  <formatted_address>279 Bedford Ave, Brooklyn, NY 11211, USA</formatted_address>
  <address_component>
   <long_name>279</long_name>
   <short_name>279</short_name>
   <type>street_number</type>
  </address_component>
  <address_component>
   <long_name>Bedford Avenue</long_name>
   <short_name>Bedford Ave</short_name>
   <type>route</type>
  </address_component>
  <address_component>
   <long_name>Williamsburg</long_name>
   <short_name>Williamsburg</short_name>
   <type>neighborhood</type>
   <type>political</type>
  </address_component>
  <address_component>
   <long_name>Brooklyn</long_name>
   <short_name>Brooklyn</short_name>
   <type>political</type>
   <type>sublocality</type>
   <type>sublocality_level_1</type>
  </address_component>
  <address_component>
   <long_name>Kings County</long_name>
   <short_name>Kings County</short_name>
   <type>administrative_area_level_2</type>
   <type>political</type>
  </address_component>
  <address_component>
   <long_name>New York</long_name>
   <short_name>NY</short_name>
   <type>administrative_area_level_1</type>
   <type>political</type>
  </address_component>
  <address_component>
   <long_name>United States</long_name>
   <short_name>US</short_name>
   <type>country</type>
   <type>political</type>
  </address_component>
  <address_component>
   <long_name>11211</long_name>
   <short_name>11211</short_name>
   <type>postal_code</type>
  </address_component>
  <address_component>
   <long_name>4203</long_name>
   <short_name>4203</short_name>
   <type>postal_code_suffix</type>
  </address_component>
  <geometry>
   <location>
    <lat>40.7142015</lat>
    <lng>-73.9613077</lng>
   </location>
   <location_type>ROOFTOP</location_type>
   <viewport>
    <southwest>
     <lat>40.7128591</lat>
     <lng>-73.9626451</lng>
    </southwest>
    <northeast>
     <lat>40.7155571</lat>
     <lng>-73.9599472</lng>
    </northeast>
   </viewport>
   <bounds>
    <southwest>
     <lat>40.7141534</lat>
     <lng>-73.9613792</lng>
    </southwest>
    <northeast>
     <lat>40.7142628</lat>
     <lng>-73.9612131</lng>
    </northeast>
   </bounds>
  </geometry>
  <place_id>ChIJRYYERGBZwokRAM4n1GlcYX4</place_id>
 </result>
 <result>
  <type>establishment</type>
  <type>point_of_interest</type>
  <formatted_address>277 Bedford Ave, Brooklyn, NY 11211, USA</formatted_address>
  <address_component>
   <long_name>277</long_name>
   <short_name>277</short_name>
   <type>street_number</type>
  </address_component>
  <address_component>
   <long_name>Bedford Avenue</long_name>
   <short_name>Bedford Ave</short_name>
   <type>route</type>
  </address_component>
  <address_component>
   <long_name>Williamsburg</long_name>
   <short_name>Williamsburg</short_name>
   <type>neighborhood</type>
   <type>political</type>
  </address_component>
  <address_component>
   <long_name>Brooklyn</long_name>
   <short_name>Brooklyn</short_name>
   <type>political</type>
   <type>sublocality</type>
   <type>sublocality_level_1</type>
  </address_component>
  <address_component>
   <long_name>Kings County</long_name>
   <short_name>Kings County</short_name>
   <type>administrative_area_level_2</type>
   <type>political</type>
  </address_component>
  <address_component>
   <long_name>New York</long_name>
   <short_name>NY</short_name>
   <type>administrative_area_level_1</type>
   <type>political</type>
  </address_component>
  <address_component>
   <long_name>United States</long_name>
   <short_name>US</short_name>
   <type>country</type>
   <type>political</type>
  </address_component>
  <address_component>
   <long_name>11211</long_name>
   <short_name>11211</short_name>
   <type>postal_code</type>
  </address_component>
  <geometry>
   <location>
    <lat>40.7142205</lat>
    <lng>-73.9612903</lng>
   </location>
   <location_type>ROOFTOP</location_type>
   <viewport>
    <southwest>
     <lat>40.7128715</lat>
     <lng>-73.9626393</lng>
    </southwest>
    <northeast>
     <lat>40.7155695</lat>
     <lng>-73.9599413</lng>
    </northeast>
   </viewport>
  </geometry>
  <place_id>ChIJF0hlQ2BZwokRsrY2RAlFbAE</place_id>
  <plus_code>
   <global_code>87G8P27Q+MF</global_code>
   <compound_code>P27Q+MF Brooklyn, NY, USA</compound_code>
  </plus_code>
 </result>
 <result>
  <type>route</type>
  <formatted_address>291-275 Bedford Ave, Brooklyn, NY 11211, USA</formatted_address>
  <address_component>
   <long_name>291-275</long_name>
   <short_name>291-275</short_name>
   <type>street_number</type>
  </address_component>
  <address_component>
   <long_name>Bedford Avenue</long_name>
   <short_name>Bedford Ave</short_name>
   <type>route</type>
  </address_component>
  <address_component>
   <long_name>Williamsburg</long_name>
   <short_name>Williamsburg</short_name>
   <type>neighborhood</type>
   <type>political</type>
  </address_component>
  <address_component>
   <long_name>Brooklyn</long_name>
   <short_name>Brooklyn</short_name>
   <type>political</type>
   <type>sublocality</type>
   <type>sublocality_level_1</type>
  </address_component>
  <address_component>
   <long_name>Kings County</long_name>
   <short_name>Kings County</short_name>
   <type>administrative_area_level_2</type>
   <type>political</type>
  </address_component>
  <address_component>
   <long_name>New York</long_name>
   <short_name>NY</short_name>
   <type>administrative_area_level_1</type>
   <type>political</type>
  </address_component>
  <address_component>
   <long_name>United States</long_name>
   <short_name>US</short_name>
   <type>country</type>
   <type>political</type>
  </address_component>
  <address_component>
   <long_name>11211</long_name>
   <short_name>11211</short_name>
   <type>postal_code</type>
  </address_component>
  <geometry>
   <location>
    <lat>40.7142045</lat>
    <lng>-73.9614845</lng>
   </location>
   <location_type>GEOMETRIC_CENTER</location_type>
   <viewport>
    <southwest>
     <lat>40.7128570</lat>
     <lng>-73.9628369</lng>
    </southwest>
    <northeast>
     <lat>40.7155550</lat>
     <lng>-73.9601389</lng>
    </northeast>
   </viewport>
   <bounds>
    <southwest>
     <lat>40.7139055</lat>
     <lng>-73.9616835</lng>
    </southwest>
    <northeast>
     <lat>40.7145065</lat>
     <lng>-73.9612923</lng>
    </northeast>
   </bounds>
  </geometry>
  <place_id>ChIJ8ThWRGBZwokR3E1zUisk3LU</place_id>
 </result>
 <result>
  <type>neighborhood</type>
  <type>political</type>
  <formatted_address>South Williamsburg, Brooklyn, NY, USA</formatted_address>
  <address_component>
   <long_name>South Williamsburg</long_name>
   <short_name>South Williamsburg</short_name>
   <type>neighborhood</type>
   <type>political</type>
  </address_component>
  <address_component>
   <long_name>Brooklyn</long_name>
   <short_name>Brooklyn</short_name>
   <type>political</type>
   <type>sublocality</type>
   <type>sublocality_level_1</type>
  </address_component>
  <address_component>
   <long_name>Kings County</long_name>
   <short_name>Kings County</short_name>
   <type>administrative_area_level_2</type>
   <type>political</type>
  </address_component>
  <address_component>
   <long_name>New York</long_name>
   <short_name>NY</short_name>
   <type>administrative_area_level_1</type>
   <type>political</type>
  </address_component>
  <address_component>
   <long_name>United States</long_name>
   <short_name>US</short_name>
   <type>country</type>
   <type>political</type>
  </address_component>
  <geometry>
   <location>
    <lat>40.7043921</lat>
    <lng>-73.9565551</lng>
   </location>
   <location_type>APPROXIMATE</location_type>
   <viewport>
    <southwest>
     <lat>40.6984866</lat>
     <lng>-73.9699432</lng>
    </southwest>
    <northeast>
     <lat>40.7167119</lat>
     <lng>-73.9420904</lng>
    </northeast>
   </viewport>
   <bounds>
    <southwest>
     <lat>40.6984866</lat>
     <lng>-73.9699432</lng>
    </southwest>
    <northeast>
     <lat>40.7167119</lat>
     <lng>-73.9420904</lng>
    </northeast>
   </bounds>
  </geometry>
  <place_id>ChIJR3_ODdlbwokRYtN19kNtcuk</place_id>
 </result>
 <result>
  <type>postal_code</type>
  <formatted_address>Brooklyn, NY 11211, USA</formatted_address>
  <address_component>
   <long_name>11211</long_name>
   <short_name>11211</short_name>
   <type>postal_code</type>
  </address_component>
  <address_component>
   <long_name>Brooklyn</long_name>
   <short_name>Brooklyn</short_name>
   <type>political</type>
   <type>sublocality</type>
   <type>sublocality_level_1</type>
  </address_component>
  <address_component>
   <long_name>New York</long_name>
   <short_name>New York</short_name>
   <type>locality</type>
   <type>political</type>
  </address_component>
  <address_component>
   <long_name>New York</long_name>
   <short_name>NY</short_name>
   <type>administrative_area_level_1</type>
   <type>political</type>
  </address_component>
  <address_component>
   <long_name>United States</long_name>
   <short_name>US</short_name>
   <type>country</type>
   <type>political</type>
  </address_component>
  <geometry>
   <location>
    <lat>40.7093358</lat>
    <lng>-73.9565551</lng>
   </location>
   <location_type>APPROXIMATE</location_type>
   <viewport>
    <southwest>
     <lat>40.7008331</lat>
     <lng>-73.9644697</lng>
    </southwest>
    <northeast>
     <lat>40.7280089</lat>
     <lng>-73.9207299</lng>
    </northeast>
   </viewport>
   <bounds>
    <southwest>
     <lat>40.7008331</lat>
     <lng>-73.9644697</lng>
    </southwest>
    <northeast>
     <lat>40.7280089</lat>
     <lng>-73.9207299</lng>
    </northeast>
   </bounds>
  </geometry>
  <place_id>ChIJvbEjlVdZwokR4KapM3WCFRw</place_id>
 </result>
 <result>
  <type>neighborhood</type>
  <type>political</type>
  <formatted_address>Williamsburg, Brooklyn, NY, USA</formatted_address>
  <address_component>
   <long_name>Williamsburg</long_name>
   <short_name>Williamsburg</short_name>
   <type>neighborhood</type>
   <type>political</type>
  </address_component>
  <address_component>
   <long_name>Brooklyn</long_name>
   <short_name>Brooklyn</short_name>
   <type>political</type>
   <type>sublocality</type>
   <type>sublocality_level_1</type>
  </address_component>
  <address_component>
   <long_name>Kings County</long_name>
   <short_name>Kings County</short_name>
   <type>administrative_area_level_2</type>
   <type>political</type>
  </address_component>
  <address_component>
   <long_name>New York</long_name>
   <short_name>NY</short_name>
   <type>administrative_area_level_1</type>
   <type>political</type>
  </address_component>
  <address_component>
   <long_name>United States</long_name>
   <short_name>US</short_name>
   <type>country</type>
   <type>political</type>
  </address_component>
  <geometry>
   <location>
    <lat>40.7081156</lat>
    <lng>-73.9570696</lng>
   </location>
   <location_type>APPROXIMATE</location_type>
   <viewport>
    <southwest>
     <lat>40.6979329</lat>
     <lng>-73.9698450</lng>
    </southwest>
    <northeast>
     <lat>40.7251773</lat>
     <lng>-73.9364980</lng>
    </northeast>
   </viewport>
   <bounds>
    <southwest>
     <lat>40.6979329</lat>
     <lng>-73.9698450</lng>
    </southwest>
    <northeast>
     <lat>40.7251773</lat>
     <lng>-73.9364980</lng>
    </northeast>
   </bounds>
  </geometry>
  <place_id>ChIJQSrBBv1bwokRbNfFHCnyeYI</place_id>
 </result>
 <result>
  <type>political</type>
  <type>sublocality</type>
  <type>sublocality_level_1</type>
  <formatted_address>Brooklyn, NY, USA</formatted_address>
  <address_component>
   <long_name>Brooklyn</long_name>
   <short_name>Brooklyn</short_name>
   <type>political</type>
   <type>sublocality</type>
   <type>sublocality_level_1</type>
  </address_component>
  <address_component>
   <long_name>Kings County</long_name>
   <short_name>Kings County</short_name>
   <type>administrative_area_level_2</type>
   <type>political</type>
  </address_component>
  <address_component>
   <long_name>New York</long_name>
   <short_name>NY</short_name>
   <type>administrative_area_level_1</type>
   <type>political</type>
  </address_component>
  <address_component>
   <long_name>United States</long_name>
   <short_name>US</short_name>
   <type>country</type>
   <type>political</type>
  </address_component>
  <geometry>
   <location>
    <lat>40.6781784</lat>
    <lng>-73.9441579</lng>
   </location>
   <location_type>APPROXIMATE</location_type>
   <viewport>
    <southwest>
     <lat>40.5510420</lat>
     <lng>-74.0566300</lng>
    </southwest>
    <northeast>
     <lat>40.7394460</lat>
     <lng>-73.8333651</lng>
    </northeast>
   </viewport>
   <bounds>
    <southwest>
     <lat>40.5510420</lat>
     <lng>-74.0566300</lng>
    </southwest>
    <northeast>
     <lat>40.7394460</lat>
     <lng>-73.8333651</lng>
    </northeast>
   </bounds>
  </geometry>
  <place_id>ChIJCSF8lBZEwokRhngABHRcdoI</place_id>
 </result>
 <result>
  <type>administrative_area_level_2</type>
  <type>political</type>
  <formatted_address>Kings County, Brooklyn, NY, USA</formatted_address>
  <address_component>
   <long_name>Kings County</long_name>
   <short_name>Kings County</short_name>
   <type>administrative_area_level_2</type>
   <type>political</type>
  </address_component>
  <address_component>
   <long_name>Brooklyn</long_name>
   <short_name>Brooklyn</short_name>
   <type>political</type>
   <type>sublocality</type>
   <type>sublocality_level_1</type>
  </address_component>
  <address_component>
   <long_name>New York</long_name>
   <short_name>NY</short_name>
   <type>administrative_area_level_1</type>
   <type>political</type>
  </address_component>
  <address_component>
   <long_name>United States</long_name>
   <short_name>US</short_name>
   <type>country</type>
   <type>political</type>
  </address_component>
  <geometry>
   <location>
    <lat>40.6528762</lat>
    <lng>-73.9594940</lng>
   </location>
   <location_type>APPROXIMATE</location_type>
   <viewport>
    <southwest>
     <lat>40.5510420</lat>
     <lng>-74.0566300</lng>
    </southwest>
    <northeast>
     <lat>40.7394460</lat>
     <lng>-73.8333651</lng>
    </northeast>
   </viewport>
   <bounds>
    <southwest>
     <lat>40.5510420</lat>
     <lng>-74.0566300</lng>
    </southwest>
    <northeast>
     <lat>40.7394460</lat>
     <lng>-73.8333651</lng>
    </northeast>
   </bounds>
  </geometry>
  <place_id>ChIJOwE7_GTtwokRs75rhW4_I6M</place_id>
 </result>
 <result>
  <type>locality</type>
  <type>political</type>
  <formatted_address>New York, NY, USA</formatted_address>
  <address_component>
   <long_name>New York</long_name>
   <short_name>New York</short_name>
   <type>locality</type>
   <type>political</type>
  </address_component>
  <address_component>
   <long_name>New York</long_name>
   <short_name>NY</short_name>
   <type>administrative_area_level_1</type>
   <type>political</type>
  </address_component>
  <address_component>
   <long_name>United States</long_name>
   <short_name>US</short_name>
   <type>country</type>
   <type>political</type>
  </address_component>
  <geometry>
   <location>
    <lat>40.7127753</lat>
    <lng>-74.0059728</lng>
   </location>
   <location_type>APPROXIMATE</location_type>
   <viewport>
    <southwest>
     <lat>40.4773991</lat>
     <lng>-74.2590899</lng>
    </southwest>
    <northeast>
     <lat>40.9175771</lat>
     <lng>-73.7002721</lng>
    </northeast>
   </viewport>
   <bounds>
    <southwest>
     <lat>40.4773991</lat>
     <lng>-74.2590899</lng>
    </southwest>
    <northeast>
     <lat>40.9175771</lat>
     <lng>-73.7002721</lng>
    </northeast>
   </bounds>
  </geometry>
  <place_id>ChIJOwg_06VPwokRYv534QaPC8g</place_id>
 </result>
 <result>
  <type>establishment</type>
  <type>natural_feature</type>
  <formatted_address>Long Island, New York, USA</formatted_address>
  <address_component>
   <long_name>Long Island</long_name>
   <short_name>Long Island</short_name>
   <type>establishment</type>
   <type>natural_feature</type>
  </address_component>
  <address_component>
   <long_name>New York</long_name>
   <short_name>NY</short_name>
   <type>administrative_area_level_1</type>
   <type>political</type>
  </address_component>
  <address_component>
   <long_name>United States</long_name>
   <short_name>US</short_name>
   <type>country</type>
   <type>political</type>
  </address_component>
  <geometry>
   <location>
    <lat>40.7891420</lat>
    <lng>-73.1349610</lng>
   </location>
   <location_type>APPROXIMATE</location_type>
   <viewport>
    <southwest>
     <lat>40.5429789</lat>
     <lng>-74.0419497</lng>
    </southwest>
    <northeast>
     <lat>41.1612401</lat>
     <lng>-71.8562011</lng>
    </northeast>
   </viewport>
   <bounds>
    <southwest>
     <lat>40.5429789</lat>
     <lng>-74.0419497</lng>
    </southwest>
    <northeast>
     <lat>41.1612401</lat>
     <lng>-71.8562011</lng>
    </northeast>
   </bounds>
  </geometry>
  <place_id>ChIJy6Xu4VRE6IkRGA2UhmH59x0</place_id>
 </result>
 <result>
  <type>administrative_area_level_1</type>
  <type>political</type>
  <formatted_address>New York, USA</formatted_address>
  <address_component>
   <long_name>New York</long_name>
   <short_name>NY</short_name>
   <type>administrative_area_level_1</type>
   <type>political</type>
  </address_component>
  <address_component>
   <long_name>United States</long_name>
   <short_name>US</short_name>
   <type>country</type>
   <type>political</type>
  </address_component>
  <geometry>
   <location>
    <lat>43.2994285</lat>
    <lng>-74.2179326</lng>
   </location>
   <location_type>APPROXIMATE</location_type>
   <viewport>
    <southwest>
     <lat>40.4773991</lat>
     <lng>-79.7625901</lng>
    </southwest>
    <northeast>
     <lat>45.0158610</lat>
     <lng>-71.7774910</lng>
    </northeast>
   </viewport>
   <bounds>
    <southwest>
     <lat>40.4773991</lat>
     <lng>-79.7625901</lng>
    </southwest>
    <northeast>
     <lat>45.0158610</lat>
     <lng>-71.7774910</lng>
    </northeast>
   </bounds>
  </geometry>
  <place_id>ChIJqaUj8fBLzEwRZ5UY3sHGz90</place_id>
 </result>
 <result>
  <type>country</type>
  <type>political</type>
  <formatted_address>United States</formatted_address>
  <address_component>
   <long_name>United States</long_name>
   <short_name>US</short_name>
   <type>country</type>
   <type>political</type>
  </address_component>
  <geometry>
   <location>
    <lat>37.0902400</lat>
    <lng>-95.7128910</lng>
   </location>
   <location_type>APPROXIMATE</location_type>
   <viewport>
    <southwest>
     <lat>18.7763000</lat>
     <lng>170.5957000</lng>
    </southwest>
    <northeast>
     <lat>71.5388001</lat>
     <lng>-66.8854170</lng>
    </northeast>
   </viewport>
   <bounds>
    <southwest>
     <lat>18.7763000</lat>
     <lng>170.5957000</lng>
    </southwest>
    <northeast>
     <lat>71.5388001</lat>
     <lng>-66.8854170</lng>
    </northeast>
   </bounds>
  </geometry>
  <place_id>ChIJCzYy5IS16lQRQrfeQ5K5Oxw</place_id>
 </result>
 <result>
  <type>plus_code</type>
  <formatted_address>P27Q+MC New York, NY, USA</formatted_address>
  <address_component>
   <long_name>P27Q+MC</long_name>
   <short_name>P27Q+MC</short_name>
   <type>plus_code</type>
  </address_component>
  <address_component>
   <long_name>New York</long_name>
   <short_name>New York</short_name>
   <type>locality</type>
   <type>political</type>
  </address_component>
  <address_component>
   <long_name>New York</long_name>
   <short_name>NY</short_name>
   <type>administrative_area_level_1</type>
   <type>political</type>
  </address_component>
  <address_component>
   <long_name>United States</long_name>
   <short_name>US</short_name>
   <type>country</type>
   <type>political</type>
  </address_component>
  <geometry>
   <location>
    <lat>40.7142240</lat>
    <lng>-73.9614520</lng>
   </location>
   <location_type>ROOFTOP</location_type>
   <viewport>
    <southwest>
     <lat>40.7128385</lat>
     <lng>-73.9627865</lng>
    </southwest>
    <northeast>
     <lat>40.7155365</lat>
     <lng>-73.9600885</lng>
    </northeast>
   </viewport>
   <bounds>
    <southwest>
     <lat>40.7141250</lat>
     <lng>-73.9615000</lng>
    </southwest>
    <northeast>
     <lat>40.7142500</lat>
     <lng>-73.9613750</lng>
    </northeast>
   </bounds>
  </geometry>
  <place_id>GhIJWAIpsWtbREARHyv4bYh9UsA</place_id>
  <plus_code>
   <global_code>87G8P27Q+MC</global_code>
   <compound_code>P27Q+MC New York, NY, USA</compound_code>
  </plus_code>
 </result>
 <plus_code>
  <global_code>87G8P27Q+MC</global_code>
  <compound_code>P27Q+MC New York, NY, USA</compound_code>
 </plus_code>
</GeocodeResponse>
<!-- [END maps_http_geocode_reverse_response] -->
