# Copyright 2021 Google LLC
#
# Licensed under the Apache License, Version 2.0 (the "License");
# you may not use this file except in compliance with the License.
# You may obtain a copy of the License at
#
#      http://www.apache.org/licenses/LICENSE-2.0
#
# Unless required by applicable law or agreed to in writing, software
# distributed under the License is distributed on an "AS IS" BASIS,
# WITHOUT WARRANTIES OR CONDITIONS OF ANY KIND, either express or implied.
# See the License for the specific language governing permissions and
# limitations under the License.

# [START maps_http_roads_snaptoroads_no_interpolation_response]
{
  "snappedPoints":
    [
      {
        "location":
          { "latitude": -35.27800489993019, "longitude": 149.129531998742 },
        "originalIndex": 0,
        "placeId": "ChIJr_xl0GdNFmsRsUtUbW7qABM",
      },
      {
        "location":
          { "latitude": -35.280323564795005, "longitude": 149.1290903128365 },
        "originalIndex": 1,
        "placeId": "ChIJOyypT2hNFmsRZBtscGL0htw",
      },
      {
        "location":
          { "latitude": -35.28101395754623, "longitude": 149.1292430025548 },
        "originalIndex": 2,
        "placeId": "ChIJv5r0smlNFmsR5nunau79Fv4",
      },
      {
        "location":
          { "latitude": -35.28146506991143, "longitude": 149.12978858234607 },
        "originalIndex": 3,
        "placeId": "ChIJ601MoWlNFmsR5mvkfPp2ovA",
      },
      {
        "location":
          { "latitude": -35.28194399606459, "longitude": 149.1299842294294 },
        "originalIndex": 4,
        "placeId": "ChIJ601MoWlNFmsR5mvkfPp2ovA",
      },
      {
        "location":
          { "latitude": -35.28282136229385, "longitude": 149.12956142620385 },
        "originalIndex": 5,
        "placeId": "ChIJaUpThGlNFmsRMHWxoH7EOsc",
      },
      {
        "location":
          { "latitude": -35.28313383700836, "longitude": 149.12893500604946 },
        "originalIndex": 6,
        "placeId": "ChIJWSb8ImpNFmsRp_4JAxJFE1A",
      },
      {
        "location":
          { "latitude": -35.284728747199374, "longitude": 149.12834860726772 },
        "originalIndex": 7,
        "placeId": "ChIJtWxAZmpNFmsRlbUCkc6VtnA",
      },
    ],
}
# [END maps_http_roads_snaptoroads_no_interpolation_response]
