# Copyright 2021 Google LLC
#
# Licensed under the Apache License, Version 2.0 (the "License");
# you may not use this file except in compliance with the License.
# You may obtain a copy of the License at
#
#      http://www.apache.org/licenses/LICENSE-2.0
#
# Unless required by applicable law or agreed to in writing, software
# distributed under the License is distributed on an "AS IS" BASIS,
# WITHOUT WARRANTIES OR CONDITIONS OF ANY KIND, either express or implied.
# See the License for the specific language governing permissions and
# limitations under the License.

# [START maps_http_places_textsearch_pagetoken_response]
{
  "html_attributions": [],
  "next_page_token": "Aap_uEAuB9gmcAwAKh5XcaxB9y1gjSFFklFJTpow23lHYmnge-j_KEIRAPoj7U5VaBFtWzoxM46N_V1SkAMZV4JvRw52hQpkIy0bywvAkWDKdARb9T8Oco5AbHXKpa5xWaMm-HNLzDKieLDkk9FJglJnGqp_kSF45ITtuIlmxYbNmNZCaKR3dX3zlosao1Yx8xlO9BkFuNxC9oLxuhd8kabJ-uzcIazplfHLyaHU0YUCF1tWju6gz2F9BOuGWIq8iWPITdXEfPq_SMX5PNhfg81zb54GB9W2KDKuuAi7NMmIypa6yzpkXniQm83lthDuYBJDXKrIJydFwGYjJFsl_QYpKE8rYOcVNay1Q91-MkPscLmdbN0HEXje0Sqw3sewEOGXHjpynhmOP4YZ11oVgg_wCUdfO0rYVvApX1utfJQwY59VFAeb7QCYpFHLzctk08rO4BkvLz0wqift15Y2r04SiNgGUjDRRjQ547a_WeSEsFfnkAf88mhOR29ngBeAKV4Ujfr8TS1IgTupbTzVxCTA7__kL1NdWh1Ij9oj2_AbKCvNpmbRP6q3cHRW21_tuSU_ay6Nxw4JRoSIz2LiKvLeYNK6zVbfvFBp-2o",
  "results":
    [
      {
        "business_status": "OPERATIONAL",
        "geometry":
          {
            "location": { "lat": -33.8670097, "lng": 151.1959641 },
            "viewport":
              {
                "northeast":
                  { "lat": -33.8652676697085, "lng": 151.1970051802915 },
                "southwest":
                  { "lat": -33.8679656302915, "lng": 151.1943072197085 },
              },
          },
        "icon": "https://maps.gstatic.com/mapfiles/place_api/icons/v1/png_71/cafe-71.png",
        "icon_background_color": "#FF9E67",
        "icon_mask_base_uri": "https://maps.gstatic.com/mapfiles/place_api/icons/v2/cafe_pinlet",
        "name": "Baggios",
        "photos":
          [
            {
              "height": 1114,
              "html_attributions":
                [
                  '<a href="https://maps.google.com/maps/contrib/118404824153733122989">Kate Conroy</a>',
                ],
              "photo_reference": "Aap_uEAQut2uoSsfDs1r98iFdxzAFZWYK5vRI0JzstKdXn2ngGskeQmu5F54ft41LMtLJNzvvr-hJDWio4G_a5ToWk1sfaSCQwdRcy6ZOcGniCndcE9v1x0-7omZLkimvNSiQn-2RAbJOxyAdykrS57x7vwWlfOIZBeNSTsdbD4BcZ03QfxE",
              "width": 2388,
            },
          ],
        "place_id": "ChIJTVawZ9mvEmsRxZwZN_GD6S0",
        "plus_code":
          {
            "compound_code": "45MW+59 Pyrmont NSW, Australia",
            "global_code": "4RRH45MW+59",
          },
        "reference": "ChIJTVawZ9mvEmsRxZwZN_GD6S0",
        "scope": "GOOGLE",
        "types": ["cafe", "food", "point_of_interest", "establishment"],
        "vicinity": "Pyrmont",
      },
      {
        "business_status": "OPERATIONAL",
        "geometry":
          {
            "location": { "lat": -33.86710999999999, "lng": 151.1959991 },
            "viewport":
              {
                "northeast":
                  { "lat": -33.86581966970849, "lng": 151.1971902802915 },
                "southwest":
                  { "lat": -33.86851763029148, "lng": 151.1944923197085 },
              },
          },
        "icon": "https://maps.gstatic.com/mapfiles/place_api/icons/v1/png_71/generic_business-71.png",
        "icon_background_color": "#7B9EB0",
        "icon_mask_base_uri": "https://maps.gstatic.com/mapfiles/place_api/icons/v1/png_71/generic_pinlet",
        "name": "Life From A Suitcase",
        "photos":
          [
            {
              "height": 2160,
              "html_attributions":
                [
                  '<a href="https://maps.google.com/maps/contrib/105505602978119898120">Abdullah Al Mamun</a>',
                ],
              "photo_reference": "Aap_uEDn1kiL1qm54w7Zk6JcpdvCMTLntPo278rrOVKKGlvmb3N6gBS-6lgU0uitVfNbmUTKIwaQG9BzLaNgdbEX7pzIQLO0QjsI_0a4oXfW-UAhZWET-MFyWQ_uSiPqSx0jeWty2azc-F5rTF3oVQSULECroR16LUs_JAhZIUTeqLbyd2l2",
              "width": 3840,
            },
          ],
        "place_id": "ChIJoTCOpkWvEmsRCzAIBl5AclA",
        "plus_code":
          {
            "compound_code": "45MW+59 Pyrmont NSW, Australia",
            "global_code": "4RRH45MW+59",
          },
        "reference": "ChIJoTCOpkWvEmsRCzAIBl5AclA",
        "scope": "GOOGLE",
        "types": ["point_of_interest", "establishment"],
        "vicinity": "48A Pirrama Road, Pyrmont",
      },
      {
        "business_status": "OPERATIONAL",
        "geometry":
          {
            "location": { "lat": -33.867207, "lng": 151.195496 },
            "viewport":
              {
                "northeast":
                  { "lat": -33.8658306697085, "lng": 151.1969185302915 },
                "southwest":
                  { "lat": -33.8685286302915, "lng": 151.1942205697085 },
              },
          },
        "icon": "https://maps.gstatic.com/mapfiles/place_api/icons/v1/png_71/generic_business-71.png",
        "icon_background_color": "#7B9EB0",
        "icon_mask_base_uri": "https://maps.gstatic.com/mapfiles/place_api/icons/v1/png_71/generic_pinlet",
        "name": "The Star, Pirrama Rd, Set Down",
        "place_id": "ChIJoRq0rDeuEmsR2W2P5nSeiB4",
        "plus_code":
          {
            "compound_code": "45MW+45 Pyrmont NSW, Australia",
            "global_code": "4RRH45MW+45",
          },
        "reference": "ChIJoRq0rDeuEmsR2W2P5nSeiB4",
        "scope": "GOOGLE",
        "types": ["transit_station", "point_of_interest", "establishment"],
        "vicinity": "Australia",
      },
      {
        "business_status": "OPERATIONAL",
        "geometry":
          {
            "location": { "lat": -33.8667652, "lng": 151.1956967 },
            "viewport":
              {
                "northeast":
                  { "lat": -33.8651454197085, "lng": 151.1968714802915 },
                "southwest":
                  { "lat": -33.8678433802915, "lng": 151.1941735197085 },
              },
          },
        "icon": "https://maps.gstatic.com/mapfiles/place_api/icons/v1/png_71/generic_business-71.png",
        "icon_background_color": "#7B9EB0",
        "icon_mask_base_uri": "https://maps.gstatic.com/mapfiles/place_api/icons/v1/png_71/generic_pinlet",
        "name": "Expansion",
        "place_id": "ChIJYx0qtTeuEmsRqgT0xozr1DA",
        "plus_code":
          {
            "compound_code": "45MW+77 Pyrmont NSW, Australia",
            "global_code": "4RRH45MW+77",
          },
        "reference": "ChIJYx0qtTeuEmsRqgT0xozr1DA",
        "scope": "GOOGLE",
        "types": ["point_of_interest", "establishment"],
        "vicinity": "Australia",
      },
      {
        "business_status": "OPERATIONAL",
        "geometry":
          {
            "location": { "lat": -33.8669106, "lng": 151.1953754 },
            "viewport":
              {
                "northeast":
                  { "lat": -33.8655466697085, "lng": 151.1967794302915 },
                "southwest":
                  { "lat": -33.8682446302915, "lng": 151.1940814697085 },
              },
          },
        "icon": "https://maps.gstatic.com/mapfiles/place_api/icons/v1/png_71/generic_business-71.png",
        "icon_background_color": "#7B9EB0",
        "icon_mask_base_uri": "https://maps.gstatic.com/mapfiles/place_api/icons/v1/png_71/generic_pinlet",
        "name": "The Star, Pirrama Rd",
        "photos":
          [
            {
              "height": 2340,
              "html_attributions":
                [
                  '<a href="https://maps.google.com/maps/contrib/101362612882148803241">Sandra Holwek</a>',
                ],
              "photo_reference": "Aap_uEBCYCGchK6Uxb8uv0-u1HusZ8r5dDdIfaRNFStEcOuHvTqCjf-H0HKA0xlJHj6kQEpQs8aQ47AYoYPC_pH2OPGVDnXfOCYvuHs6lmyTWpS4K2nM-u4Gxvn98A3Ayt0Gx-VmtgM5_6QRBbEKg6A1-3i8PwQFzaGav3MhzNl9rtRN2Fcv",
              "width": 4160,
            },
          ],
        "place_id": "ChIJC0JLTDauEmsR3GOrBl3xbbc",
        "plus_code":
          {
            "compound_code": "45MW+65 Pyrmont NSW, Australia",
            "global_code": "4RRH45MW+65",
          },
        "rating": 5,
        "reference": "ChIJC0JLTDauEmsR3GOrBl3xbbc",
        "scope": "GOOGLE",
        "types": ["transit_station", "point_of_interest", "establishment"],
        "user_ratings_total": 1,
        "vicinity": "Australia",
      },
      {
        "business_status": "OPERATIONAL",
        "geometry":
          {
            "location": { "lat": -33.8673595, "lng": 151.1955698 },
            "viewport":
              {
                "northeast":
                  { "lat": -33.8659744697085, "lng": 151.1970461802915 },
                "southwest":
                  { "lat": -33.8686724302915, "lng": 151.1943482197085 },
              },
          },
        "icon": "https://maps.gstatic.com/mapfiles/place_api/icons/v1/png_71/bar-71.png",
        "icon_background_color": "#FF9E67",
        "icon_mask_base_uri": "https://maps.gstatic.com/mapfiles/place_api/icons/v2/bar_pinlet",
        "name": "Marquee Sydney, The Star",
        "opening_hours": { "open_now": false },
        "photos":
          [
            {
              "height": 2268,
              "html_attributions":
                [
                  '<a href="https://maps.google.com/maps/contrib/100936716492343709003">Goldie Goldie</a>',
                ],
              "photo_reference": "Aap_uECN6-ajifhwzIduK5jeefMskQDNcOdQLaduhhk3BSMFh-qtHOujQ1Jr_U_C7Vx8OXfpweeJJeIHRuGhPq4hV6FYX85LyBhaFPhP5zjMCNJOo8nmD-wj7CG_jhQaicDNmKWConvqA7QYnxptinZMtmm7MJbKtdhdNyGyDzgfL2CDbp_k",
              "width": 4032,
            },
          ],
        "place_id": "ChIJYdJUVDauEmsRp-7oNoEMhuQ",
        "plus_code":
          {
            "compound_code": "45MW+36 Pyrmont NSW, Australia",
            "global_code": "4RRH45MW+36",
          },
        "price_level": 3,
        "rating": 3.3,
        "reference": "ChIJYdJUVDauEmsRp-7oNoEMhuQ",
        "scope": "GOOGLE",
        "types": ["night_club", "bar", "point_of_interest", "establishment"],
        "user_ratings_total": 319,
        "vicinity": "Pirrama Road, Pyrmont",
      },
      {
        "business_status": "OPERATIONAL",
        "geometry":
          {
            "location": { "lat": -33.86697330000001, "lng": 151.1963034 },
            "viewport":
              {
                "northeast":
                  { "lat": -33.86562431970851, "lng": 151.1976523802915 },
                "southwest":
                  { "lat": -33.86832228029151, "lng": 151.1949544197085 },
              },
          },
        "icon": "https://maps.gstatic.com/mapfiles/place_api/icons/v1/png_71/generic_business-71.png",
        "icon_background_color": "#7B9EB0",
        "icon_mask_base_uri": "https://maps.gstatic.com/mapfiles/place_api/icons/v1/png_71/generic_pinlet",
        "name": "Casino Wharf",
        "photos":
          [
            {
              "height": 3096,
              "html_attributions":
                [
                  '<a href="https://maps.google.com/maps/contrib/108901116777704647158">Shakar Abdullah</a>',
                ],
              "photo_reference": "Aap_uEDXD0TEPeoUUhP_ugq3A2lgvDI8SL1w5WUQl6s7JGxg0d5NUn4Rhd2Nd1hj10ipaIAigI8eXppJRzgBCIAQyBmPXCrSHa_oD2m1anX49rdk6XKXXo1v4wtbZBOMa0NTFJEGtFDfDbVDhbQNnc2G_nB2eZ7ci4JwpCgiSsjyaS2a4pTF",
              "width": 5504,
            },
          ],
        "place_id": "ChIJ7xwTtzeuEmsR7-WvCn94qQ4",
        "plus_code":
          {
            "compound_code": "45MW+6G Pyrmont NSW, Australia",
            "global_code": "4RRH45MW+6G",
          },
        "rating": 4.2,
        "reference": "ChIJ7xwTtzeuEmsR7-WvCn94qQ4",
        "scope": "GOOGLE",
        "types": ["transit_station", "point_of_interest", "establishment"],
        "user_ratings_total": 17,
        "vicinity": "Australia",
      },
      {
        "business_status": "OPERATIONAL",
        "geometry":
          {
            "location": { "lat": -33.8666593, "lng": 151.1960631 },
            "viewport":
              {
                "northeast":
                  { "lat": -33.8651255697085, "lng": 151.1973047802915 },
                "southwest":
                  { "lat": -33.8678235302915, "lng": 151.1946068197085 },
              },
          },
        "icon": "https://maps.gstatic.com/mapfiles/place_api/icons/v1/png_71/generic_business-71.png",
        "icon_background_color": "#7B9EB0",
        "icon_mask_base_uri": "https://maps.gstatic.com/mapfiles/place_api/icons/v1/png_71/generic_pinlet",
        "name": "google Cloud",
        "place_id": "ChIJNa7wyTeuEmsRF4P1lQOoDh4",
        "plus_code":
          {
            "compound_code": "45MW+8C Pyrmont NSW, Australia",
            "global_code": "4RRH45MW+8C",
          },
        "reference": "ChIJNa7wyTeuEmsRF4P1lQOoDh4",
        "scope": "GOOGLE",
        "types": ["point_of_interest", "establishment"],
        "vicinity": "Australia",
      },
      {
        "business_status": "OPERATIONAL",
        "geometry":
          {
            "location": { "lat": -33.8665443, "lng": 151.1957644 },
            "viewport":
              {
                "northeast":
                  { "lat": -33.8650471697085, "lng": 151.1971682802915 },
                "southwest":
                  { "lat": -33.8677451302915, "lng": 151.1944703197085 },
              },
          },
        "icon": "https://maps.gstatic.com/mapfiles/place_api/icons/v1/png_71/cafe-71.png",
        "icon_background_color": "#FF9E67",
        "icon_mask_base_uri": "https://maps.gstatic.com/mapfiles/place_api/icons/v2/cafe_pinlet",
        "name": "The Press Coffee",
        "place_id": "ChIJXysTVTauEmsRcB4ykrx7bMQ",
        "plus_code":
          {
            "compound_code": "45MW+98 Pyrmont NSW, Australia",
            "global_code": "4RRH45MW+98",
          },
        "reference": "ChIJXysTVTauEmsRcB4ykrx7bMQ",
        "scope": "GOOGLE",
        "types": ["cafe", "food", "point_of_interest", "establishment"],
        "vicinity": "Australia",
      },
      {
        "business_status": "CLOSED_TEMPORARILY",
        "geometry":
          {
            "location": { "lat": -33.8675674, "lng": 151.1956091 },
            "viewport":
              {
                "northeast":
                  { "lat": -33.8661628697085, "lng": 151.1970671802915 },
                "southwest":
                  { "lat": -33.8688608302915, "lng": 151.1943692197085 },
              },
          },
        "icon": "https://maps.gstatic.com/mapfiles/place_api/icons/v1/png_71/bar-71.png",
        "icon_background_color": "#FF9E67",
        "icon_mask_base_uri": "https://maps.gstatic.com/mapfiles/place_api/icons/v2/bar_pinlet",
        "name": "Cherry at The Star",
        "permanently_closed": true,
        "photos":
          [
            {
              "height": 992,
              "html_attributions":
                [
                  '<a href="https://maps.google.com/maps/contrib/113210398723584203092">Cherry at The Star</a>',
                ],
              "photo_reference": "Aap_uEBUD0uTxhlrG88EdkydV8YencPx33ardLyTzIEFZjdtjCwcr8nZUrg31fn6CBHs68WAfvwYy2W2gZE42b8lLX_1JtN2STNDVbhlB2iQc31qJbDqSw_36E8LT0Tl5bicEuEsHKEY8WD12Q_mwqBRT9Le0B0vdIE6CyTdJNSEfg5WKSu1",
              "width": 1650,
            },
          ],
        "place_id": "ChIJ1-v38TauEmsR41TkSleEZ-U",
        "plus_code":
          {
            "compound_code": "45JW+X6 Pyrmont NSW, Australia",
            "global_code": "4RRH45JW+X6",
          },
        "rating": 3.8,
        "reference": "ChIJ1-v38TauEmsR41TkSleEZ-U",
        "scope": "GOOGLE",
        "types": ["night_club", "bar", "point_of_interest", "establishment"],
        "user_ratings_total": 49,
        "vicinity": "THE STAR, 80 Pyrmont Street, Pyrmont",
      },
      {
        "business_status": "OPERATIONAL",
        "geometry":
          {
            "location": { "lat": -33.86737879999999, "lng": 151.1952268 },
            "viewport":
              {
                "northeast":
                  { "lat": -33.8661077197085, "lng": 151.1968885802915 },
                "southwest":
                  { "lat": -33.8688056802915, "lng": 151.1941906197085 },
              },
          },
        "icon": "https://maps.gstatic.com/mapfiles/place_api/icons/v1/png_71/generic_business-71.png",
        "icon_background_color": "#7B9EB0",
        "icon_mask_base_uri": "https://maps.gstatic.com/mapfiles/place_api/icons/v1/png_71/generic_pinlet",
        "name": "The Star",
        "photos":
          [
            {
              "height": 781,
              "html_attributions":
                [
                  '<a href="https://maps.google.com/maps/contrib/116220967134626559383">Privacy Security</a>',
                ],
              "photo_reference": "Aap_uEApxy_2MiplnfkL46KYlb87ybFo3g_ni29dUEMluzMxeadMW3KvXivwHrjbbv80wFVgwpkxfI4CF67SaYK89-cg8LEVlZTgfPyNGMKJxzc6ZG4rlj06Ce_lIcoayQpLM2v8VG8uzDIMjDCpp7Fo-muHzLWe_moQ7jSVj8oUkoJoYMmV",
              "width": 1080,
            },
          ],
        "place_id": "ChIJw1SqUTauEmsRnlzd7kKbyWM",
        "plus_code":
          {
            "compound_code": "45MW+23 Pyrmont NSW, Australia",
            "global_code": "4RRH45MW+23",
          },
        "rating": 4.2,
        "reference": "ChIJw1SqUTauEmsRnlzd7kKbyWM",
        "scope": "GOOGLE",
        "types":
          [
            "light_rail_station",
            "transit_station",
            "point_of_interest",
            "establishment",
          ],
        "user_ratings_total": 60,
        "vicinity": "Australia",
      },
      {
        "business_status": "OPERATIONAL",
        "geometry":
          {
            "location": { "lat": -33.866489, "lng": 151.1958561 },
            "viewport":
              {
                "northeast":
                  { "lat": -33.8650278197085, "lng": 151.1972428802915 },
                "southwest":
                  { "lat": -33.8677257802915, "lng": 151.1945449197085 },
              },
          },
        "icon": "https://maps.gstatic.com/mapfiles/place_api/icons/v1/png_71/school-71.png",
        "icon_background_color": "#7B9EB0",
        "icon_mask_base_uri": "https://maps.gstatic.com/mapfiles/place_api/icons/v2/school_pinlet",
        "name": "Igor Spiroski executive chef",
        "opening_hours": { "open_now": true },
        "place_id": "ChIJP2xKNByvEmsR5TwlU99XBws",
        "plus_code":
          {
            "compound_code": "45MW+C8 Pyrmont NSW, Australia",
            "global_code": "4RRH45MW+C8",
          },
        "reference": "ChIJP2xKNByvEmsR5TwlU99XBws",
        "scope": "GOOGLE",
        "types": ["school", "point_of_interest", "establishment"],
        "vicinity": "48 Pirrama Road, Pyrmont",
      },
      {
        "business_status": "OPERATIONAL",
        "geometry":
          {
            "location": { "lat": -33.866489, "lng": 151.1958561 },
            "viewport":
              {
                "northeast":
                  { "lat": -33.8650278197085, "lng": 151.1972428802915 },
                "southwest":
                  { "lat": -33.8677257802915, "lng": 151.1945449197085 },
              },
          },
        "icon": "https://maps.gstatic.com/mapfiles/place_api/icons/v1/png_71/generic_business-71.png",
        "icon_background_color": "#7B9EB0",
        "icon_mask_base_uri": "https://maps.gstatic.com/mapfiles/place_api/icons/v1/png_71/generic_pinlet",
        "name": "Kingsbourne International Realty",
        "place_id": "ChIJ____yjeuEmsRQI547lN3AAE",
        "reference": "ChIJ____yjeuEmsRQI547lN3AAE",
        "scope": "GOOGLE",
        "types": ["real_estate_agency", "point_of_interest", "establishment"],
        "vicinity": "48 Pirrama Road, Sydney",
      },
      {
        "business_status": "OPERATIONAL",
        "geometry":
          {
            "location": { "lat": -33.866489, "lng": 151.1958561 },
            "viewport":
              {
                "northeast":
                  { "lat": -33.8650278197085, "lng": 151.1972428802915 },
                "southwest":
                  { "lat": -33.8677257802915, "lng": 151.1945449197085 },
              },
          },
        "icon": "https://maps.gstatic.com/mapfiles/place_api/icons/v1/png_71/generic_business-71.png",
        "icon_background_color": "#7B9EB0",
        "icon_mask_base_uri": "https://maps.gstatic.com/mapfiles/place_api/icons/v1/png_71/generic_pinlet",
        "name": "McEwan Net",
        "place_id": "ChIJ____yjeuEmsReGqH4RHQdlA",
        "reference": "ChIJ____yjeuEmsReGqH4RHQdlA",
        "scope": "GOOGLE",
        "types": ["point_of_interest", "establishment"],
        "vicinity": "48 Pirrama Road, Pyrmont",
      },
      {
        "business_status": "OPERATIONAL",
        "geometry":
          {
            "location": { "lat": -33.866489, "lng": 151.1958561 },
            "viewport":
              {
                "northeast":
                  { "lat": -33.8655112697085, "lng": 151.1971156302915 },
                "southwest":
                  { "lat": -33.86820923029149, "lng": 151.1944176697085 },
              },
          },
        "icon": "https://maps.gstatic.com/mapfiles/place_api/icons/v1/png_71/generic_business-71.png",
        "icon_background_color": "#7B9EB0",
        "icon_mask_base_uri": "https://maps.gstatic.com/mapfiles/place_api/icons/v1/png_71/generic_pinlet",
        "name": "Google Workplace 6",
        "opening_hours": { "open_now": false },
        "photos":
          [
            {
              "height": 3024,
              "html_attributions":
                [
                  '<a href="https://maps.google.com/maps/contrib/105067373811767106297">Shaun Craig</a>',
                ],
              "photo_reference": "Aap_uEA0ymgnSnqVchfTd5WI6lNJIcPxXwVsWGxQiHV3DiMynXLJocxeiEpw935OmSbXdQbuiGDjqcSn9JfyovDKIr4CInbDHFZGhggLGaWvYFgyWbe4Nq-vc6vjPwXLmoNhFp0ACwLEnmP3U1G61AAR-Arf2j_f7cCceFjaeAQQOG5kqQld",
              "width": 4032,
            },
          ],
        "place_id": "ChIJN1t_tDeuEmsRUsoyG83frY4",
        "plus_code":
          {
            "compound_code": "45MW+C8 Pyrmont NSW, Australia",
            "global_code": "4RRH45MW+C8",
          },
        "rating": 4.1,
        "reference": "ChIJN1t_tDeuEmsRUsoyG83frY4",
        "scope": "GOOGLE",
        "types": ["point_of_interest", "establishment"],
        "user_ratings_total": 932,
        "vicinity": "48 Pirrama Road, Pyrmont",
      },
      {
        "business_status": "OPERATIONAL",
        "geometry":
          {
            "location": { "lat": -33.8676204, "lng": 151.1955323 },
            "viewport":
              {
                "northeast":
                  { "lat": -33.8662064197085, "lng": 151.1970403302915 },
                "southwest":
                  { "lat": -33.8689043802915, "lng": 151.1943423697085 },
              },
          },
        "icon": "https://maps.gstatic.com/mapfiles/place_api/icons/v1/png_71/parking-71.png",
        "icon_background_color": "#7B9EB0",
        "icon_mask_base_uri": "https://maps.gstatic.com/mapfiles/place_api/icons/v2/parking_pinlet",
        "name": "The Star Parking Station",
        "place_id": "ChIJdbRKZHqvEmsRP0KvU-mOKFM",
        "plus_code":
          {
            "compound_code": "45JW+X6 Pyrmont NSW, Australia",
            "global_code": "4RRH45JW+X6",
          },
        "rating": 3,
        "reference": "ChIJdbRKZHqvEmsRP0KvU-mOKFM",
        "scope": "GOOGLE",
        "types": ["parking", "point_of_interest", "establishment"],
        "user_ratings_total": 1,
        "vicinity": "Pyrmont",
      },
      {
        "business_status": "OPERATIONAL",
        "geometry":
          {
            "location": { "lat": -33.8677499, "lng": 151.1956285 },
            "viewport":
              {
                "northeast":
                  { "lat": -33.86633911970851, "lng": 151.1971286802915 },
                "southwest":
                  { "lat": -33.8690370802915, "lng": 151.1944307197085 },
              },
          },
        "icon": "https://maps.gstatic.com/mapfiles/place_api/icons/v1/png_71/restaurant-71.png",
        "icon_background_color": "#FF9E67",
        "icon_mask_base_uri": "https://maps.gstatic.com/mapfiles/place_api/icons/v2/restaurant_pinlet",
        "name": "Lotus Pond",
        "opening_hours": { "open_now": true },
        "place_id": "ChIJS_-h7TauEmsRdmDJ2CvXToY",
        "plus_code":
          {
            "compound_code": "45JW+W7 Pyrmont NSW, Australia",
            "global_code": "4RRH45JW+W7",
          },
        "rating": 4,
        "reference": "ChIJS_-h7TauEmsRdmDJ2CvXToY",
        "scope": "GOOGLE",
        "types": ["restaurant", "food", "point_of_interest", "establishment"],
        "user_ratings_total": 3,
        "vicinity": "80 Pyrmont Street, Pyrmont",
      },
      {
        "business_status": "OPERATIONAL",
        "geometry":
          {
            "location": { "lat": -33.8663304, "lng": 151.1958556 },
            "viewport":
              {
                "northeast":
                  { "lat": -33.8649403197085, "lng": 151.1972106302915 },
                "southwest":
                  { "lat": -33.8676382802915, "lng": 151.1945126697085 },
              },
          },
        "icon": "https://maps.gstatic.com/mapfiles/place_api/icons/v1/png_71/generic_business-71.png",
        "icon_background_color": "#7B9EB0",
        "icon_mask_base_uri": "https://maps.gstatic.com/mapfiles/place_api/icons/v1/png_71/generic_pinlet",
        "name": "Signorelli Gastronomia",
        "photos":
          [
            {
              "height": 390,
              "html_attributions":
                [
                  '<a href="https://maps.google.com/maps/contrib/112179085393170343226">Signorelli Gastronomia</a>',
                ],
              "photo_reference": "Aap_uEB-N2ElS8f-B1qOAn8JTSzh6gJrt_xlE9eEDTvyICQ70cfYMOso5I_8iYdQ3Iq4MqCuAnRlO3bjo7idMqVOOf-m415_gr1Cw18xXjYJFc3J6s9jBXA-LnbiYSiRkVrJOccW8Ik-FqCKhQPwevL0zs9EG1WhQLbT33FxU17v2Y4tJ7yW",
              "width": 960,
            },
          ],
        "place_id": "ChIJFcJDMzauEmsRy81NJCujoY8",
        "plus_code":
          {
            "compound_code": "45MW+F8 Pyrmont NSW, Australia",
            "global_code": "4RRH45MW+F8",
          },
        "price_level": 1,
        "rating": 4.1,
        "reference": "ChIJFcJDMzauEmsRy81NJCujoY8",
        "scope": "GOOGLE",
        "types": ["food", "point_of_interest", "establishment"],
        "user_ratings_total": 29,
        "vicinity": "Signorelli Gastronomia, Trouton Place, Pyrmont",
      },
      {
        "business_status": "OPERATIONAL",
        "geometry":
          {
            "location": { "lat": -33.8662849, "lng": 151.1955744 },
            "viewport":
              {
                "northeast":
                  { "lat": -33.8648757197085, "lng": 151.1968986802915 },
                "southwest":
                  { "lat": -33.8675736802915, "lng": 151.1942007197085 },
              },
          },
        "icon": "https://maps.gstatic.com/mapfiles/place_api/icons/v1/png_71/generic_business-71.png",
        "icon_background_color": "#7B9EB0",
        "icon_mask_base_uri": "https://maps.gstatic.com/mapfiles/place_api/icons/v1/png_71/generic_pinlet",
        "name": "Channel Sales",
        "place_id": "ChIJq_qYNDauEmsRhguNtCezF-Y",
        "plus_code":
          {
            "compound_code": "45MW+F6 Pyrmont NSW, Australia",
            "global_code": "4RRH45MW+F6",
          },
        "reference": "ChIJq_qYNDauEmsRhguNtCezF-Y",
        "scope": "GOOGLE",
        "types": ["point_of_interest", "establishment"],
        "vicinity": "Australia",
      },
      {
        "business_status": "OPERATIONAL",
        "geometry":
          {
            "location": { "lat": -33.8678074, "lng": 151.1953681 },
            "viewport":
              {
                "northeast":
                  { "lat": -33.8663481697085, "lng": 151.1969868302915 },
                "southwest":
                  { "lat": -33.8690461302915, "lng": 151.1942888697085 },
              },
          },
        "icon": "https://maps.gstatic.com/mapfiles/place_api/icons/v1/png_71/restaurant-71.png",
        "icon_background_color": "#FF9E67",
        "icon_mask_base_uri": "https://maps.gstatic.com/mapfiles/place_api/icons/v2/restaurant_pinlet",
        "name": "Pizzeria",
        "opening_hours": { "open_now": false },
        "photos":
          [
            {
              "height": 1960,
              "html_attributions":
                [
                  '<a href="https://maps.google.com/maps/contrib/106029929261427351012">David</a>',
                ],
              "photo_reference": "Aap_uEDQomDHjUMjY-s14DjQy5ZN0xLNRmWbWoMjuj8U8WFLjJjEcBGgx95w1oiSy-BIb1dPcM4MwQS2n57U6Bs6fDrGnx-X5NO3kRJmf3oYTUMGd9WLhFLf4_x06WoQvcORSw91aUaYBMGZ0jsrG3m5Q7JN0FDkxmQFNXQtjJA5imBYra2w",
              "width": 4032,
            },
          ],
        "place_id": "ChIJHeyLbOavEmsRajbggVkfoEo",
        "plus_code":
          {
            "compound_code": "45JW+V4 Pyrmont NSW, Australia",
            "global_code": "4RRH45JW+V4",
          },
        "rating": 5,
        "reference": "ChIJHeyLbOavEmsRajbggVkfoEo",
        "scope": "GOOGLE",
        "types": ["restaurant", "food", "point_of_interest", "establishment"],
        "user_ratings_total": 2,
        "vicinity": "The Star Casino, Shop 17B/80 Pyrmont Street, Pyrmont",
      },
    ],
  "status": "OK",
}
# [END maps_http_places_textsearch_pagetoken_response]
