# Copyright 2021 Google LLC
#
# Licensed under the Apache License, Version 2.0 (the "License");
# you may not use this file except in compliance with the License.
# You may obtain a copy of the License at
#
#      http://www.apache.org/licenses/LICENSE-2.0
#
# Unless required by applicable law or agreed to in writing, software
# distributed under the License is distributed on an "AS IS" BASIS,
# WITHOUT WARRANTIES OR CONDITIONS OF ANY KIND, either express or implied.
# See the License for the specific language governing permissions and
# limitations under the License.

# [START maps_http_places_textsearch_pagetoken_response]
{
  "html_attributions": [],
  "next_page_token": "Aap_uEDn66JlyLR6luXcSBCEqw0tI_ZqIld7tHJGnGo51_xtgyilcNXUEtlD5p8nDM0IRniijX6WsPzbJHAje3U1z9pkF4fSYLSpa6FbNPB-ozR1u3KEkoI3rktSq6G6CzDpRheImpFX3bUhhTzKyRUifsNsN4eFZ4a-L5xBmK-itbaoXIomdItae7SA5XwY2XLaZXn-z-KCOFIavZDwwPHF06tDXNScUMXJkuZlDnrr7OfCwKN_3HPDhqZ6lfz8XlcfOgo8jjCfOhQiIQoDgm3vLm39K7p0hZUHaiFlNvn8Txhdu1cDu6Pp5J0O66ClVwAlYFyGlQ2cm22_mYctkfmhLDPFotacdw8I988Ar6cEfrEezF-w-hp7Kl8KxgsRPzLiqkfzeNV6cQP5wo38Q_nTqp318MC558qe52cgEoic6k1NAJqNEosmr60HOL14Lc45s_L-AR_jMEezFPH-CnYEg_5CpDCHtXFKhwIOCxYJnSzb8NoQ6weLdt8vo2dlJcss2xiWv2FPbyIzs7E_yjbKDrdkjCA6BG58MU8UkgRDz1aWlVpOUyfRH75KzWW5RJIrUlMoKCMz3SHinGxJs-kuQXhCaWaxs7b4zrE",
  "results":
    [
      {
        "business_status": "OPERATIONAL",
        "geometry":
          {
            "location": { "lat": -33.8670097, "lng": 151.1959641 },
            "viewport":
              {
                "northeast":
                  { "lat": -33.8652676697085, "lng": 151.1970051802915 },
                "southwest":
                  { "lat": -33.8679656302915, "lng": 151.1943072197085 },
              },
          },
        "icon": "https://maps.gstatic.com/mapfiles/place_api/icons/v1/png_71/cafe-71.png",
        "icon_background_color": "#FF9E67",
        "icon_mask_base_uri": "https://maps.gstatic.com/mapfiles/place_api/icons/v2/cafe_pinlet",
        "name": "Baggios",
        "photos":
          [
            {
              "height": 1114,
              "html_attributions":
                [
                  '<a href="https://maps.google.com/maps/contrib/118404824153733122989">Kate Conroy</a>',
                ],
              "photo_reference": "Aap_uEBLSECoqIB5T3Ant_SG6g-iS1RosOL2B5p-q0CfKhUXSmQBx7kzdid10L4lheMk0X7ns3cX6wRqQQygwbrEP9ZhMPm1auFfj19guH5V3hSAmQLIksnXPmGCPuB2oG4DFRwdib3OSUMW7rKFK-6HBsjNyyXdNguMRhNVkuGELsRpwZHX",
              "width": 2388,
            },
          ],
        "place_id": "ChIJTVawZ9mvEmsRxZwZN_GD6S0",
        "plus_code":
          {
            "compound_code": "45MW+59 Pyrmont NSW, Australia",
            "global_code": "4RRH45MW+59",
          },
        "reference": "ChIJTVawZ9mvEmsRxZwZN_GD6S0",
        "scope": "GOOGLE",
        "types": ["cafe", "food", "point_of_interest", "establishment"],
        "vicinity": "Pyrmont",
      },
      {
        "business_status": "OPERATIONAL",
        "geometry":
          {
            "location": { "lat": -33.86710999999999, "lng": 151.1959991 },
            "viewport":
              {
                "northeast":
                  { "lat": -33.86581966970849, "lng": 151.1971902802915 },
                "southwest":
                  { "lat": -33.86851763029148, "lng": 151.1944923197085 },
              },
          },
        "icon": "https://maps.gstatic.com/mapfiles/place_api/icons/v1/png_71/generic_business-71.png",
        "icon_background_color": "#7B9EB0",
        "icon_mask_base_uri": "https://maps.gstatic.com/mapfiles/place_api/icons/v1/png_71/generic_pinlet",
        "name": "Life From A Suitcase",
        "photos":
          [
            {
              "height": 2160,
              "html_attributions":
                [
                  '<a href="https://maps.google.com/maps/contrib/105505602978119898120">Abdullah Al Mamun</a>',
                ],
              "photo_reference": "Aap_uEDbpB4qemJ5oAcR09Z_TMKwwrVOzgNOLmBOP1KYS7kXPl1ajjpTHXlGOGNzcIxfmeXv1TAb9mPOEe2jTTJ82f0IZHGWjgu2Rm-G9WwsUm_gNSgN-WYhwgRIdGopZLstI5K3YfHS-IPTHKLu9tuVRSNivCRj7AuRCHYpRJb9h_wUgg76",
              "width": 3840,
            },
          ],
        "place_id": "ChIJoTCOpkWvEmsRCzAIBl5AclA",
        "plus_code":
          {
            "compound_code": "45MW+59 Pyrmont NSW, Australia",
            "global_code": "4RRH45MW+59",
          },
        "reference": "ChIJoTCOpkWvEmsRCzAIBl5AclA",
        "scope": "GOOGLE",
        "types": ["point_of_interest", "establishment"],
        "vicinity": "48A Pirrama Road, Pyrmont",
      },
      {
        "business_status": "OPERATIONAL",
        "geometry":
          {
            "location": { "lat": -33.867207, "lng": 151.195496 },
            "viewport":
              {
                "northeast":
                  { "lat": -33.8658306697085, "lng": 151.1969185302915 },
                "southwest":
                  { "lat": -33.8685286302915, "lng": 151.1942205697085 },
              },
          },
        "icon": "https://maps.gstatic.com/mapfiles/place_api/icons/v1/png_71/generic_business-71.png",
        "icon_background_color": "#7B9EB0",
        "icon_mask_base_uri": "https://maps.gstatic.com/mapfiles/place_api/icons/v1/png_71/generic_pinlet",
        "name": "The Star, Pirrama Rd, Set Down",
        "place_id": "ChIJoRq0rDeuEmsR2W2P5nSeiB4",
        "plus_code":
          {
            "compound_code": "45MW+45 Pyrmont NSW, Australia",
            "global_code": "4RRH45MW+45",
          },
        "reference": "ChIJoRq0rDeuEmsR2W2P5nSeiB4",
        "scope": "GOOGLE",
        "types": ["transit_station", "point_of_interest", "establishment"],
        "vicinity": "Australia",
      },
      {
        "business_status": "OPERATIONAL",
        "geometry":
          {
            "location": { "lat": -33.8667652, "lng": 151.1956967 },
            "viewport":
              {
                "northeast":
                  { "lat": -33.8651454197085, "lng": 151.1968714802915 },
                "southwest":
                  { "lat": -33.8678433802915, "lng": 151.1941735197085 },
              },
          },
        "icon": "https://maps.gstatic.com/mapfiles/place_api/icons/v1/png_71/generic_business-71.png",
        "icon_background_color": "#7B9EB0",
        "icon_mask_base_uri": "https://maps.gstatic.com/mapfiles/place_api/icons/v1/png_71/generic_pinlet",
        "name": "Expansion",
        "place_id": "ChIJYx0qtTeuEmsRqgT0xozr1DA",
        "plus_code":
          {
            "compound_code": "45MW+77 Pyrmont NSW, Australia",
            "global_code": "4RRH45MW+77",
          },
        "reference": "ChIJYx0qtTeuEmsRqgT0xozr1DA",
        "scope": "GOOGLE",
        "types": ["point_of_interest", "establishment"],
        "vicinity": "Australia",
      },
      {
        "business_status": "OPERATIONAL",
        "geometry":
          {
            "location": { "lat": -33.8669106, "lng": 151.1953754 },
            "viewport":
              {
                "northeast":
                  { "lat": -33.8655466697085, "lng": 151.1967794302915 },
                "southwest":
                  { "lat": -33.8682446302915, "lng": 151.1940814697085 },
              },
          },
        "icon": "https://maps.gstatic.com/mapfiles/place_api/icons/v1/png_71/generic_business-71.png",
        "icon_background_color": "#7B9EB0",
        "icon_mask_base_uri": "https://maps.gstatic.com/mapfiles/place_api/icons/v1/png_71/generic_pinlet",
        "name": "The Star, Pirrama Rd",
        "photos":
          [
            {
              "height": 2340,
              "html_attributions":
                [
                  '<a href="https://maps.google.com/maps/contrib/101362612882148803241">Sandra Holwek</a>',
                ],
              "photo_reference": "Aap_uEAY1G2mlORJjgklvN8n2UoQELggGPPzCBEQt-qUXb-EGvbPCLxD6OokcWbD-_JUBkDyYoHrRVciLHyaDxj7GBUECs9dDxJ27zE-wl2cfGSOjudNPy5LTI_txwn3Q2_lBndlY0CPam-5yBbCAmVvEb8x40nrghB6OySghWI_eB8-X_KR",
              "width": 4160,
            },
          ],
        "place_id": "ChIJC0JLTDauEmsR3GOrBl3xbbc",
        "plus_code":
          {
            "compound_code": "45MW+65 Pyrmont NSW, Australia",
            "global_code": "4RRH45MW+65",
          },
        "rating": 5,
        "reference": "ChIJC0JLTDauEmsR3GOrBl3xbbc",
        "scope": "GOOGLE",
        "types": ["transit_station", "point_of_interest", "establishment"],
        "user_ratings_total": 1,
        "vicinity": "Australia",
      },
      {
        "business_status": "OPERATIONAL",
        "geometry":
          {
            "location": { "lat": -33.8673595, "lng": 151.1955698 },
            "viewport":
              {
                "northeast":
                  { "lat": -33.8659744697085, "lng": 151.1970461802915 },
                "southwest":
                  { "lat": -33.8686724302915, "lng": 151.1943482197085 },
              },
          },
        "icon": "https://maps.gstatic.com/mapfiles/place_api/icons/v1/png_71/bar-71.png",
        "icon_background_color": "#FF9E67",
        "icon_mask_base_uri": "https://maps.gstatic.com/mapfiles/place_api/icons/v2/bar_pinlet",
        "name": "Marquee Sydney, The Star",
        "opening_hours": { "open_now": false },
        "photos":
          [
            {
              "height": 2268,
              "html_attributions":
                [
                  '<a href="https://maps.google.com/maps/contrib/100936716492343709003">Goldie Goldie</a>',
                ],
              "photo_reference": "Aap_uECrkH8lY5Ahf5lVsAeiiw2nbBbQszU_rHGvRQd-jrbfdl4J7goJX4fGKF2vlU0np3_4yRg45XwoWor4zlssx_GbZUYmJDHrd1C3o7cds-WA_z4I-t0YBKibJYrK7TkFfSAHrXfMDRvYumgslth2_H4J5F_dG8fEhCR9PAUttggrCY_4",
              "width": 4032,
            },
          ],
        "place_id": "ChIJYdJUVDauEmsRp-7oNoEMhuQ",
        "plus_code":
          {
            "compound_code": "45MW+36 Pyrmont NSW, Australia",
            "global_code": "4RRH45MW+36",
          },
        "price_level": 3,
        "rating": 3.3,
        "reference": "ChIJYdJUVDauEmsRp-7oNoEMhuQ",
        "scope": "GOOGLE",
        "types": ["night_club", "bar", "point_of_interest", "establishment"],
        "user_ratings_total": 319,
        "vicinity": "Pirrama Road, Pyrmont",
      },
      {
        "business_status": "OPERATIONAL",
        "geometry":
          {
            "location": { "lat": -33.86697330000001, "lng": 151.1963034 },
            "viewport":
              {
                "northeast":
                  { "lat": -33.86562431970851, "lng": 151.1976523802915 },
                "southwest":
                  { "lat": -33.86832228029151, "lng": 151.1949544197085 },
              },
          },
        "icon": "https://maps.gstatic.com/mapfiles/place_api/icons/v1/png_71/generic_business-71.png",
        "icon_background_color": "#7B9EB0",
        "icon_mask_base_uri": "https://maps.gstatic.com/mapfiles/place_api/icons/v1/png_71/generic_pinlet",
        "name": "Casino Wharf",
        "photos":
          [
            {
              "height": 3096,
              "html_attributions":
                [
                  '<a href="https://maps.google.com/maps/contrib/108901116777704647158">Shakar Abdullah</a>',
                ],
              "photo_reference": "Aap_uEBqJd8zWIhAG3WJZmQYDr6ZbAZ8UZDvveX01UddxdrEqwVpardCkMJNsuFSfM4cVKYmweF-HBCAwsFN9uVnXmxCeFjYVvmWL_zPffCOTsXXt-MAx1ee15xrzYUd2QaBi--StamLLOdJmu10sDbZDBJljdfqNwpX9E_8d-5Sp1HS8HO2",
              "width": 5504,
            },
          ],
        "place_id": "ChIJ7xwTtzeuEmsR7-WvCn94qQ4",
        "plus_code":
          {
            "compound_code": "45MW+6G Pyrmont NSW, Australia",
            "global_code": "4RRH45MW+6G",
          },
        "rating": 4.2,
        "reference": "ChIJ7xwTtzeuEmsR7-WvCn94qQ4",
        "scope": "GOOGLE",
        "types": ["transit_station", "point_of_interest", "establishment"],
        "user_ratings_total": 17,
        "vicinity": "Australia",
      },
      {
        "business_status": "OPERATIONAL",
        "geometry":
          {
            "location": { "lat": -33.8666593, "lng": 151.1960631 },
            "viewport":
              {
                "northeast":
                  { "lat": -33.8651255697085, "lng": 151.1973047802915 },
                "southwest":
                  { "lat": -33.8678235302915, "lng": 151.1946068197085 },
              },
          },
        "icon": "https://maps.gstatic.com/mapfiles/place_api/icons/v1/png_71/generic_business-71.png",
        "icon_background_color": "#7B9EB0",
        "icon_mask_base_uri": "https://maps.gstatic.com/mapfiles/place_api/icons/v1/png_71/generic_pinlet",
        "name": "google Cloud",
        "place_id": "ChIJNa7wyTeuEmsRF4P1lQOoDh4",
        "plus_code":
          {
            "compound_code": "45MW+8C Pyrmont NSW, Australia",
            "global_code": "4RRH45MW+8C",
          },
        "reference": "ChIJNa7wyTeuEmsRF4P1lQOoDh4",
        "scope": "GOOGLE",
        "types": ["point_of_interest", "establishment"],
        "vicinity": "Australia",
      },
      {
        "business_status": "OPERATIONAL",
        "geometry":
          {
            "location": { "lat": -33.8665443, "lng": 151.1957644 },
            "viewport":
              {
                "northeast":
                  { "lat": -33.8650471697085, "lng": 151.1971682802915 },
                "southwest":
                  { "lat": -33.8677451302915, "lng": 151.1944703197085 },
              },
          },
        "icon": "https://maps.gstatic.com/mapfiles/place_api/icons/v1/png_71/cafe-71.png",
        "icon_background_color": "#FF9E67",
        "icon_mask_base_uri": "https://maps.gstatic.com/mapfiles/place_api/icons/v2/cafe_pinlet",
        "name": "The Press Coffee",
        "place_id": "ChIJXysTVTauEmsRcB4ykrx7bMQ",
        "plus_code":
          {
            "compound_code": "45MW+98 Pyrmont NSW, Australia",
            "global_code": "4RRH45MW+98",
          },
        "reference": "ChIJXysTVTauEmsRcB4ykrx7bMQ",
        "scope": "GOOGLE",
        "types": ["cafe", "food", "point_of_interest", "establishment"],
        "vicinity": "Australia",
      },
      {
        "business_status": "CLOSED_TEMPORARILY",
        "geometry":
          {
            "location": { "lat": -33.8675674, "lng": 151.1956091 },
            "viewport":
              {
                "northeast":
                  { "lat": -33.8661628697085, "lng": 151.1970671802915 },
                "southwest":
                  { "lat": -33.8688608302915, "lng": 151.1943692197085 },
              },
          },
        "icon": "https://maps.gstatic.com/mapfiles/place_api/icons/v1/png_71/bar-71.png",
        "icon_background_color": "#FF9E67",
        "icon_mask_base_uri": "https://maps.gstatic.com/mapfiles/place_api/icons/v2/bar_pinlet",
        "name": "Cherry at The Star",
        "permanently_closed": true,
        "photos":
          [
            {
              "height": 992,
              "html_attributions":
                [
                  '<a href="https://maps.google.com/maps/contrib/113210398723584203092">Cherry at The Star</a>',
                ],
              "photo_reference": "Aap_uEBblIRs-AYw7M-vvIqLvmKvXIkM2mcA6VQvzyd55TvMH2LKFXJK3aqeACp6DQgjxJ-0R-TWIEWlmSeBFRBaEdEOkVpu496V7ydaxE6bsxbRudSzxnxHKDmguCAouxiud4PG1EdeHPadEmVq0KuqlJnQRXGpd993w_fdQZLoujoVabfy",
              "width": 1650,
            },
          ],
        "place_id": "ChIJ1-v38TauEmsR41TkSleEZ-U",
        "plus_code":
          {
            "compound_code": "45JW+X6 Pyrmont NSW, Australia",
            "global_code": "4RRH45JW+X6",
          },
        "rating": 3.8,
        "reference": "ChIJ1-v38TauEmsR41TkSleEZ-U",
        "scope": "GOOGLE",
        "types": ["night_club", "bar", "point_of_interest", "establishment"],
        "user_ratings_total": 49,
        "vicinity": "THE STAR, 80 Pyrmont Street, Pyrmont",
      },
      {
        "business_status": "OPERATIONAL",
        "geometry":
          {
            "location": { "lat": -33.86737879999999, "lng": 151.1952268 },
            "viewport":
              {
                "northeast":
                  { "lat": -33.8661077197085, "lng": 151.1968885802915 },
                "southwest":
                  { "lat": -33.8688056802915, "lng": 151.1941906197085 },
              },
          },
        "icon": "https://maps.gstatic.com/mapfiles/place_api/icons/v1/png_71/generic_business-71.png",
        "icon_background_color": "#7B9EB0",
        "icon_mask_base_uri": "https://maps.gstatic.com/mapfiles/place_api/icons/v1/png_71/generic_pinlet",
        "name": "The Star",
        "photos":
          [
            {
              "height": 781,
              "html_attributions":
                [
                  '<a href="https://maps.google.com/maps/contrib/116220967134626559383">Privacy Security</a>',
                ],
              "photo_reference": "Aap_uEDqGpnDdOZj96D1XdufD0EIvygafX-PFJ3vKpVXqYZKOrivm9eE7zzKYFhydQXrcriLYBqnnkKms1214ZEe1cf2_Td3BySN_pK-r0Vk3rTIRyGCRp9OUXkhe_gSSuooYpBiINl8FgRW37AovxY7fH7h7Naw_sXIR89zVljF6Sj-qzA2",
              "width": 1080,
            },
          ],
        "place_id": "ChIJw1SqUTauEmsRnlzd7kKbyWM",
        "plus_code":
          {
            "compound_code": "45MW+23 Pyrmont NSW, Australia",
            "global_code": "4RRH45MW+23",
          },
        "rating": 4.2,
        "reference": "ChIJw1SqUTauEmsRnlzd7kKbyWM",
        "scope": "GOOGLE",
        "types":
          [
            "light_rail_station",
            "transit_station",
            "point_of_interest",
            "establishment",
          ],
        "user_ratings_total": 60,
        "vicinity": "Australia",
      },
      {
        "business_status": "OPERATIONAL",
        "geometry":
          {
            "location": { "lat": -33.866489, "lng": 151.1958561 },
            "viewport":
              {
                "northeast":
                  { "lat": -33.8650278197085, "lng": 151.1972428802915 },
                "southwest":
                  { "lat": -33.8677257802915, "lng": 151.1945449197085 },
              },
          },
        "icon": "https://maps.gstatic.com/mapfiles/place_api/icons/v1/png_71/school-71.png",
        "icon_background_color": "#7B9EB0",
        "icon_mask_base_uri": "https://maps.gstatic.com/mapfiles/place_api/icons/v2/school_pinlet",
        "name": "Igor Spiroski executive chef",
        "opening_hours": { "open_now": true },
        "place_id": "ChIJP2xKNByvEmsR5TwlU99XBws",
        "plus_code":
          {
            "compound_code": "45MW+C8 Pyrmont NSW, Australia",
            "global_code": "4RRH45MW+C8",
          },
        "reference": "ChIJP2xKNByvEmsR5TwlU99XBws",
        "scope": "GOOGLE",
        "types": ["school", "point_of_interest", "establishment"],
        "vicinity": "48 Pirrama Road, Pyrmont",
      },
      {
        "business_status": "OPERATIONAL",
        "geometry":
          {
            "location": { "lat": -33.866489, "lng": 151.1958561 },
            "viewport":
              {
                "northeast":
                  { "lat": -33.8650278197085, "lng": 151.1972428802915 },
                "southwest":
                  { "lat": -33.8677257802915, "lng": 151.1945449197085 },
              },
          },
        "icon": "https://maps.gstatic.com/mapfiles/place_api/icons/v1/png_71/generic_business-71.png",
        "icon_background_color": "#7B9EB0",
        "icon_mask_base_uri": "https://maps.gstatic.com/mapfiles/place_api/icons/v1/png_71/generic_pinlet",
        "name": "Kingsbourne International Realty",
        "place_id": "ChIJ____yjeuEmsRQI547lN3AAE",
        "reference": "ChIJ____yjeuEmsRQI547lN3AAE",
        "scope": "GOOGLE",
        "types": ["real_estate_agency", "point_of_interest", "establishment"],
        "vicinity": "48 Pirrama Road, Sydney",
      },
      {
        "business_status": "OPERATIONAL",
        "geometry":
          {
            "location": { "lat": -33.866489, "lng": 151.1958561 },
            "viewport":
              {
                "northeast":
                  { "lat": -33.8650278197085, "lng": 151.1972428802915 },
                "southwest":
                  { "lat": -33.8677257802915, "lng": 151.1945449197085 },
              },
          },
        "icon": "https://maps.gstatic.com/mapfiles/place_api/icons/v1/png_71/generic_business-71.png",
        "icon_background_color": "#7B9EB0",
        "icon_mask_base_uri": "https://maps.gstatic.com/mapfiles/place_api/icons/v1/png_71/generic_pinlet",
        "name": "McEwan Net",
        "place_id": "ChIJ____yjeuEmsReGqH4RHQdlA",
        "reference": "ChIJ____yjeuEmsReGqH4RHQdlA",
        "scope": "GOOGLE",
        "types": ["point_of_interest", "establishment"],
        "vicinity": "48 Pirrama Road, Pyrmont",
      },
      {
        "business_status": "OPERATIONAL",
        "geometry":
          {
            "location": { "lat": -33.866489, "lng": 151.1958561 },
            "viewport":
              {
                "northeast":
                  { "lat": -33.8655112697085, "lng": 151.1971156302915 },
                "southwest":
                  { "lat": -33.86820923029149, "lng": 151.1944176697085 },
              },
          },
        "icon": "https://maps.gstatic.com/mapfiles/place_api/icons/v1/png_71/generic_business-71.png",
        "icon_background_color": "#7B9EB0",
        "icon_mask_base_uri": "https://maps.gstatic.com/mapfiles/place_api/icons/v1/png_71/generic_pinlet",
        "name": "Google Workplace 6",
        "opening_hours": { "open_now": false },
        "photos":
          [
            {
              "height": 3024,
              "html_attributions":
                [
                  '<a href="https://maps.google.com/maps/contrib/105067373811767106297">Shaun Craig</a>',
                ],
              "photo_reference": "Aap_uEClasWULllPi-TKq_bRQJr-_JWhxktglYRhaWX9chTV0rsh6yjSWe073p8IjVcpLpJCNgjf95zbJYQ2kIsS-hitWSfTnsIAQGxDOiSHVNlWSmVdq4ZCEjJe-wjn4AySXHS5986vEB7NpJ8FGV5naySyYFLF3eWpdYtiExsTXTc25Ia1",
              "width": 4032,
            },
          ],
        "place_id": "ChIJN1t_tDeuEmsRUsoyG83frY4",
        "plus_code":
          {
            "compound_code": "45MW+C8 Pyrmont NSW, Australia",
            "global_code": "4RRH45MW+C8",
          },
        "rating": 4.1,
        "reference": "ChIJN1t_tDeuEmsRUsoyG83frY4",
        "scope": "GOOGLE",
        "types": ["point_of_interest", "establishment"],
        "user_ratings_total": 931,
        "vicinity": "48 Pirrama Road, Pyrmont",
      },
      {
        "business_status": "OPERATIONAL",
        "geometry":
          {
            "location": { "lat": -33.8676204, "lng": 151.1955323 },
            "viewport":
              {
                "northeast":
                  { "lat": -33.8662064197085, "lng": 151.1970403302915 },
                "southwest":
                  { "lat": -33.8689043802915, "lng": 151.1943423697085 },
              },
          },
        "icon": "https://maps.gstatic.com/mapfiles/place_api/icons/v1/png_71/parking-71.png",
        "icon_background_color": "#7B9EB0",
        "icon_mask_base_uri": "https://maps.gstatic.com/mapfiles/place_api/icons/v2/parking_pinlet",
        "name": "The Star Parking Station",
        "place_id": "ChIJdbRKZHqvEmsRP0KvU-mOKFM",
        "plus_code":
          {
            "compound_code": "45JW+X6 Pyrmont NSW, Australia",
            "global_code": "4RRH45JW+X6",
          },
        "rating": 3,
        "reference": "ChIJdbRKZHqvEmsRP0KvU-mOKFM",
        "scope": "GOOGLE",
        "types": ["parking", "point_of_interest", "establishment"],
        "user_ratings_total": 1,
        "vicinity": "Pyrmont",
      },
      {
        "business_status": "OPERATIONAL",
        "geometry":
          {
            "location": { "lat": -33.8677499, "lng": 151.1956285 },
            "viewport":
              {
                "northeast":
                  { "lat": -33.86633911970851, "lng": 151.1971286802915 },
                "southwest":
                  { "lat": -33.8690370802915, "lng": 151.1944307197085 },
              },
          },
        "icon": "https://maps.gstatic.com/mapfiles/place_api/icons/v1/png_71/restaurant-71.png",
        "icon_background_color": "#FF9E67",
        "icon_mask_base_uri": "https://maps.gstatic.com/mapfiles/place_api/icons/v2/restaurant_pinlet",
        "name": "Lotus Pond",
        "opening_hours": { "open_now": true },
        "place_id": "ChIJS_-h7TauEmsRdmDJ2CvXToY",
        "plus_code":
          {
            "compound_code": "45JW+W7 Pyrmont NSW, Australia",
            "global_code": "4RRH45JW+W7",
          },
        "rating": 4,
        "reference": "ChIJS_-h7TauEmsRdmDJ2CvXToY",
        "scope": "GOOGLE",
        "types": ["restaurant", "food", "point_of_interest", "establishment"],
        "user_ratings_total": 3,
        "vicinity": "80 Pyrmont Street, Pyrmont",
      },
      {
        "business_status": "OPERATIONAL",
        "geometry":
          {
            "location": { "lat": -33.8663304, "lng": 151.1958556 },
            "viewport":
              {
                "northeast":
                  { "lat": -33.8649403197085, "lng": 151.1972106302915 },
                "southwest":
                  { "lat": -33.8676382802915, "lng": 151.1945126697085 },
              },
          },
        "icon": "https://maps.gstatic.com/mapfiles/place_api/icons/v1/png_71/generic_business-71.png",
        "icon_background_color": "#7B9EB0",
        "icon_mask_base_uri": "https://maps.gstatic.com/mapfiles/place_api/icons/v1/png_71/generic_pinlet",
        "name": "Signorelli Gastronomia",
        "photos":
          [
            {
              "height": 390,
              "html_attributions":
                [
                  '<a href="https://maps.google.com/maps/contrib/112179085393170343226">Signorelli Gastronomia</a>',
                ],
              "photo_reference": "Aap_uEAA4jkH42a0KIYXOp3v8pXt0h0t3M7lruDlUAuLTUKbFdEk65EvDTr_2_uLrnhEoxqAVYFuR2xwuBqcnO67brXhCKC2NqaCPaGY9d-IdDET46fnS5B_t0ar8in8iaCqm-nX-Ym8Wjo71no4x-y3ozc8-KKkhy9Vt3MxjPlTw58e6pPv",
              "width": 960,
            },
          ],
        "place_id": "ChIJFcJDMzauEmsRy81NJCujoY8",
        "plus_code":
          {
            "compound_code": "45MW+F8 Pyrmont NSW, Australia",
            "global_code": "4RRH45MW+F8",
          },
        "price_level": 1,
        "rating": 4.1,
        "reference": "ChIJFcJDMzauEmsRy81NJCujoY8",
        "scope": "GOOGLE",
        "types": ["food", "point_of_interest", "establishment"],
        "user_ratings_total": 29,
        "vicinity": "Signorelli Gastronomia, Trouton Place, Pyrmont",
      },
      {
        "business_status": "OPERATIONAL",
        "geometry":
          {
            "location": { "lat": -33.8662849, "lng": 151.1955744 },
            "viewport":
              {
                "northeast":
                  { "lat": -33.8648757197085, "lng": 151.1968986802915 },
                "southwest":
                  { "lat": -33.8675736802915, "lng": 151.1942007197085 },
              },
          },
        "icon": "https://maps.gstatic.com/mapfiles/place_api/icons/v1/png_71/generic_business-71.png",
        "icon_background_color": "#7B9EB0",
        "icon_mask_base_uri": "https://maps.gstatic.com/mapfiles/place_api/icons/v1/png_71/generic_pinlet",
        "name": "Channel Sales",
        "place_id": "ChIJq_qYNDauEmsRhguNtCezF-Y",
        "plus_code":
          {
            "compound_code": "45MW+F6 Pyrmont NSW, Australia",
            "global_code": "4RRH45MW+F6",
          },
        "reference": "ChIJq_qYNDauEmsRhguNtCezF-Y",
        "scope": "GOOGLE",
        "types": ["point_of_interest", "establishment"],
        "vicinity": "Australia",
      },
      {
        "business_status": "OPERATIONAL",
        "geometry":
          {
            "location": { "lat": -33.8678074, "lng": 151.1953681 },
            "viewport":
              {
                "northeast":
                  { "lat": -33.8663481697085, "lng": 151.1969868302915 },
                "southwest":
                  { "lat": -33.8690461302915, "lng": 151.1942888697085 },
              },
          },
        "icon": "https://maps.gstatic.com/mapfiles/place_api/icons/v1/png_71/restaurant-71.png",
        "icon_background_color": "#FF9E67",
        "icon_mask_base_uri": "https://maps.gstatic.com/mapfiles/place_api/icons/v2/restaurant_pinlet",
        "name": "Pizzeria",
        "photos":
          [
            {
              "height": 1960,
              "html_attributions":
                [
                  '<a href="https://maps.google.com/maps/contrib/106029929261427351012">David</a>',
                ],
              "photo_reference": "Aap_uEDphIA0ma0IbxOcgs8s0EerqUnPmvy1ia31cmn99eD6ZhS0QebZDS5VNBBJHVQ-IKEsSVZveJQmL5uhsYvsefJe_-aaaPKJMhPNz1q1lFbm3gByjiPFiypeflyZG282lTS3KxAuyygYUUF4UczCPAwLFZ-120TmdCZTblKruYqJ1WSC",
              "width": 4032,
            },
          ],
        "place_id": "ChIJHeyLbOavEmsRajbggVkfoEo",
        "plus_code":
          {
            "compound_code": "45JW+V4 Pyrmont NSW, Australia",
            "global_code": "4RRH45JW+V4",
          },
        "rating": 5,
        "reference": "ChIJHeyLbOavEmsRajbggVkfoEo",
        "scope": "GOOGLE",
        "types": ["restaurant", "food", "point_of_interest", "establishment"],
        "user_ratings_total": 2,
        "vicinity": "The Star Casino, Shop 17B/80 Pyrmont Street, Pyrmont",
      },
    ],
  "status": "OK",
}
# [END maps_http_places_textsearch_pagetoken_response]
